stop_I;lat;lon;name
5@6013_600;43.7778086900976;11.2397241014307;T1 Porta Al Prato - Leopolda
6@BRP011_600;43.7134614229807;11.2908887187895;San Martino A Strada
6@BRP067_600;43.7150688511835;11.2914622718203;San Martino 1
6@BRP068_600;43.7121210857279;11.2903307121816;San Martino
6@BRP069_600;43.7122213529543;11.2904490996084;San Martino
6@BRP071_600;43.7032417837945;11.2932425623869;Ugolino
6@BRP102_600;43.7149348067209;11.2915359738172;San Martino
6@FI_001_600;43.7758209554761;11.2464342758946;Firenze Autostazione
6@FI_098_600;43.7300879387826;11.2484146091042;Il Pino
6@FI_128_600;43.7363598441127;11.2454557375873;P. Le Vigne
6@FI_129_600;43.7363854969723;11.2456046388069;P. Le Vigne
6@FI_144_600;43.7336874999653;11.2488750395471;P. San Valentino
6@FI_145_600;43.7380422281349;11.2446732329238;Mulino Nuovo
6@FI_158_600;43.7383032322032;11.2443391370786;Mulino Nuovo
6@FI_159_600;43.7338213602766;11.2486749232627;P. San Valentino
6@GCH106_600;43.6831913827506;11.2936254934677;Decimo Km
6@GCH134_600;43.6876649511411;11.296227761078;La Presura Greve
6@GCH139_600;43.6687095448573;11.2915332930192;Poggio Sala 1
6@GCH140_600;43.6705859018248;11.2848031810026;Parcole 2
6@GCH143_600;43.6726013376011;11.2777700389485;Tortelli 2
6@GCH144_600;43.6715958616954;11.280200528505;Casanova 1
6@GCH145_600;43.6704265573962;11.2848202043307;Parcole 1
6@GCH147_600;43.6688190494096;11.2871827153561;Santa Cristina Villaggio 1
6@GCH148_600;43.6716713829231;11.2804135145689;Casanova 2
6@GCH149_600;43.6724785612867;11.2778451524936;Tortelli 1
6@GCH150_600;43.682526924184;11.2932393899898;Decimo Km
6@GCH151_600;43.6784195460392;11.2928905865511;Poggio Olivello
6@GCH153_600;43.6779237958771;11.2927879626865;Poggio Olivello
6@GCH158_600;43.6717170588343;11.2921285624683;Petigliolo
6@GCH160_600;43.6718106687626;11.2922197000157;Petigliolo
6@GCH206_600;43.6690614489813;11.2905433646365;Poggio Sala 2
6@GCH207_600;43.6688070578894;11.286684259195;Santa Cristina Villaggio 2
6@IMT005_600;43.7033226903474;11.2931366827588;Ugolino
6@IMT025_600;43.695810584298;11.2929286760989;Poggio Ugolino
6@IMT026_600;43.695666055391;11.2929628400967;Poggio Ugolino
6@IMT027_600;43.687557169244;11.2961565234898;La Presura Greve
6@IMT044_600;43.6913456056823;11.2540357153058;Monte S. Antonio
6@IMT045_600;43.6964789987692;11.2507708788833;I Meccoli
6@IMT046_600;43.7017513093815;11.2492446639606;Le Rose
6@IMT047_600;43.7059920336153;11.2524967913197;Campiano
6@IMT048_600;43.7112727704677;11.2568833033867;Sant'Isidoro
6@IMT050_600;43.715500904637;11.2602597987321;Mezzomonte
6@IMT051_600;43.7207539159845;11.2514564208792;Don Gnocchi
6@IMT052_600;43.7243186029792;11.2447535523197;Croce Di Via Di Pozzolatico
6@IMT053_600;43.7297178489901;11.2482201034981;Il Pino
6@IMT054_600;43.7087393426853;11.2552693063738;Monte Oriolo
6@IMT061_600;43.6857062191809;11.2544315123767;Impruneta Piazza Buondelmonti 1
6@IMT066_600;43.7142421880543;11.2212221738805;Borghetto
6@IMT068_600;43.6747423849771;11.2693460051096;Porcinaia 1
6@IMT069_600;43.6837063941038;11.2562484649644;Ferrone Impruneta 2
6@IMT071_600;43.6777101710798;11.2575608071924;Prachatice Ferrone 1
6@IMT073_600;43.6901843432551;11.2430366233519;Fornace Poggi 2
6@IMT074_600;43.6773169022009;11.263003505034;Impruneta La Presura 2
6@IMT075_600;43.6771711187619;11.2632224342092;Impruneta La Presura 1
6@IMT076_600;43.6772414310196;11.2597475139944;Prachatice Pinetina 2
6@IMT077_600;43.6792245008558;11.2565986120133;Ferrone Fornaci 1
6@IMT078_600;43.6834548110055;11.2559760128758;Ferrone Impruneta 1
6@IMT079_600;43.6877158797999;11.2523925800066;Impruneta Viale Libertà 2
6@IMT080_600;43.6793133525099;11.2567224028402;Ferrone Fornaci 2
6@IMT081_600;43.6918891364325;11.2346396014679;Convento Suore 1
6@IMT082_600;43.6924601509237;11.2267075221318;Bagnolo Cimitero 1
6@IMT083_600;43.6957741995725;11.219882977354;Bagnolo 1
6@IMT084_600;43.7056582666379;11.2210039532562;Tavarnuzze Montebuoni 2
6@IMT085_600;43.7105792356684;11.218929843022;Tavarnuzze
6@IMT087_600;43.7248986544614;11.2449621941409;Croce Di Via Di Pozzolatico
6@IMT088_600;43.720902666155;11.2511405883499;Don Gnocchi
6@IMT089_600;43.7199597699505;11.2558989644882;La Querciola
6@IMT090_600;43.7178537516075;11.2595525696767;Scaluccia
6@IMT091_600;43.7156035620954;11.2603272146895;Mezzomonte
6@IMT092_600;43.7130831257445;11.257074407553;Lo Scopetello
6@IMT093_600;43.7087884372777;11.2554732737485;Monte Oriolo
6@IMT094_600;43.7061321818443;11.2526767918097;Campiano
6@IMT095_600;43.7025642484566;11.2495462408863;Le Rose
6@IMT096_600;43.6771913014693;11.2598921377147;Prachatice Pinetina 1
6@IMT097_600;43.6916846951396;11.2542403765457;Monte S. Antonio
6@IMT098_600;43.6777330400419;11.257715739534;Prachatice Ferrone 2
6@IMT099_600;43.7107780419757;11.2193327578025;Montebuoni
6@IMT100_600;43.7058223906739;11.2213148341808;Tavarnuzze Montebuoni 1
6@IMT101_600;43.6983420398441;11.2191686486862;Montebuoni 1
6@IMT102_600;43.6941214772597;11.2207688940315;Bagnolo 2
6@IMT103_600;43.6922937206362;11.2268575828587;Bagnolo Cimitero 2
6@IMT104_600;43.6918261400104;11.2347808249991;Convento Suore 2
6@IMT105_600;43.6905596466401;11.2423056400464;Fornace Poggi 1
6@IMT107_600;43.6855832141266;11.2544642484808;Impruneta Piazza Buondelmonti 2
6@IMT110_600;43.6964822252871;11.2505842407393;I Meccoli
6@IMT111_600;43.6795208354798;11.2646743117934;Impruneta Terza Piazza
6@IMT116_600;43.7114412762944;11.2572044061045;Sant'Isidoro
6@IMT122_600;43.6985521427485;11.2193469101462;Montebuoni 2
6@IMT123_600;43.7137026397794;11.2574947551931;Lo Scopetello
6@IMT124_600;43.7198419651243;11.2568399966198;La Querciola
6@IMT125_600;43.7176201100897;11.2601879056309;Scaluccia
6@IMT126_600;43.6877276796493;11.2524798493529;Impruneta Viale Libertà 1
6@IMT226_600;43.674819222359;11.2691039083168;Porcinaia 2
6@IMT49B_600;43.6847039835047;11.2569217967686;Impruneta Piazza Accursio
7@FM0044_600;43.8549021168235;11.1499684874679;Calenzano Via Di Capalle
7@FM0073_600;43.857347790524;11.1573042304531;Via Risorgimento
7@FM0076_600;43.7715114649867;11.138483658261;Il Palazzaccio
7@FM0098_600;43.7457744397492;11.1806576692438;Vingone
7@FM0099_600;43.7478076630289;11.1822728222241;Scandicci Botticelli
7@FM0100_600;43.7500005263983;11.1846257001371;Roma 04
7@FM0101_600;43.7519903411395;11.187395523832;Roma 02
7@FM0102_600;43.7536491763148;11.1904816221565;Matteotti Alighieri
7@FM0103_600;43.7544515518512;11.1930075107397;Marconi 02
7@FM0104_600;43.7562772716821;11.1973286216612;Bagnese
7@FM0130_600;43.8399012634658;11.1950028533903;Viviani
7@FM0147_600;43.7857081390094;11.3720745117028;Variante Ss67 Ferrovia
7@FM0148_600;43.779820103707;11.1507994524705;Michelucci
7@FM0165_600;43.7688820549342;11.1697797909592;Minervini
7@FM0171_600;43.7691035028836;11.1694973822531;Sollicciano
7@FM0172_600;43.771199921932;11.1619723727276;Pontignale Pace Mondiale
7@FM0175_600;43.7826652263569;11.1500813066136;Mozza
7@FM0194_600;43.756282941551;11.1970338157709;Bagnese 01
7@FM0195_600;43.7543616058384;11.1925337707172;Molin Nuovo
7@FM0196_600;43.7535731700965;11.1902194967839;Matteotti Paoli
7@FM0197_600;43.7516379286782;11.1869024376804;Roma 01
7@FM0198_600;43.7498108982209;11.1843203402137;Roma 03
7@FM0199_600;43.8111715987902;11.082453597446;Bassa
7@FM0211_600;43.7944718702452;11.2165802178493;Baracchini
7@FM0250_600;43.7518069901254;11.1832413858813;Scandicci Vespucci
7@FM0283_600;43.7957232107503;11.20332356914;Pistoiese Baracca
7@FM0284_600;43.7665366491133;11.1704900918165;Pacini Bassa
7@FM0285_600;43.766543510571;11.1708397581527;Pacini Cimarosa
7@FM0308_600;43.7957602938939;11.2028012646761;Pistoiese Bivio
7@FM0318_600;43.7913661835476;11.149652275257;Viottole
7@FM0345_600;43.7714358933492;11.1387498987214;Stagnacci
7@FM0350_600;43.7939336423134;11.1471807741638;Molina 01
7@FM0351_600;43.7911704546287;11.1327140234848;Molina 07
7@FM0391_600;43.7882374183124;11.136215437825;Bassi 02
7@FM0409_600;43.7736390218112;11.1400210229032;Superstrada
7@FM0418_600;43.7763818379029;11.1409157487213;Grioli
7@FM0419_600;43.7482299035515;11.1810247497747;Scandicci Brunelleschi
7@FM0420_600;43.7540121093877;11.1790362901606;Scuola Rodari
7@FM0421_600;43.7538162386952;11.1798644997288;Scuola Russell
7@FM0434_600;43.776087683197;11.1352250680064;Mattarella
7@FM0459_600;43.7748737729733;11.1368267426934;Stagnaccio Basso
7@FM0460_600;43.7724543114476;11.1388589563997;Stagnaccio Basso C.F.P.
7@FM0484_600;43.7595443030159;11.1814203668014;Settantottesimo Reggimento
7@FM0505_600;43.7498851876926;11.1737411951884;Socet
7@FM0509_600;43.7892142696672;11.144866279786;Trento 06
7@FM0514_600;43.7917639939121;11.1466913498251;Trento 04
7@FM0520_600;43.7899166823476;11.168229228685;Lazio Liguria
7@FM0521_600;43.7634740774598;11.1814343332078;Vivaldi 01
7@FM0559_600;43.7614761340981;11.1798809180632;Vivaldi 03
7@FM0593_600;43.8365458485628;11.214446762175;Biblioteca Di Doccia
7@FM0623_600;43.7087195936403;11.0730548620522;Piazza Del Popolo
7@FM0638_600;43.70206490878;11.100734304363;Via San Niccolo'
7@FM0642_600;43.6950790123058;11.1097241572294;Via Canto Alle Gracchie
7@FM0643_600;43.6990092848745;11.1188177398111;L'Opia
7@FM0644_600;43.7031576792286;11.1227191805974;Il Poggetto
7@FM0645_600;43.7048804299024;11.1276373555191;La Fornace
7@FM0663_600;43.7637529164088;11.1755465681843;Scandicci Paganini
7@FM0664_600;43.7667889117198;11.1879453431564;Pisana Via Dei Rossi
7@FM0665_600;43.7680746630595;11.191324987465;Pisana Ponte A Greve
7@FM0668_600;43.688401672697;11.1226921335558;Borro Dell'Ermellino
7@FM0669_600;43.6846933573949;11.1272757894057;Cerbaia
7@FM0683_600;43.6885801710057;11.122510331263;Castellare
7@FM0706_600;43.6924093766712;11.1136244972617;Molinuzzo
7@FM0710_600;43.7529296784321;11.154456332706;Triozzi Basso
7@FM0721_600;43.7455531500969;11.1414260291387;Via Delle Caselle
7@FM0760_600;43.786115342581;11.2360501546194;Maragliano Bellini
7@FM0766_600;43.7456742680473;11.1414489778708;Villa Torrigiani
7@FM0767_600;43.7002335554807;11.0962740694832;Vezzosi
7@FM0768_600;43.7027994571499;11.0913682485667;Riuccio
7@FM0769_600;43.7885399716671;11.2288214756767;Redi San Donato
7@FM0781_600;43.7027547097115;11.0915993908342;Podere Del Bosco
7@FM0787_600;43.7043092841954;11.089059583564;Poggio Tondo
7@FM0859_600;43.7043019870577;11.0889662482645;Borro Di Ritortolo
7@FM0860_600;43.6985341404005;11.1000727061656;Strada Provinciale 12
7@FM0868_600;43.7653393897781;11.1839433657433;Pisana Rialdoli
7@FM0869_600;43.7051821423371;11.131699625833;Pergoletta
7@FM0870_600;43.7073705085039;11.1359256388798;La Palazzina
7@FM0871_600;43.7599268573708;11.1800103568773;Cilea
7@FM0872_600;43.75309827351;11.1853983615866;San Bartolo In Tuto 04
7@FM0873_600;43.7560648647757;11.181397936291;Scandicci Boccaccio
7@FM0874_600;43.7543026190593;11.1831551531713;Giovanni Xxiii
7@FM0876_600;43.749758874988;11.181581764343;Giotto
7@FM0877_600;43.7053814586048;11.0845822845802;Artigiani
7@FM0878_600;43.7508088147224;11.1775164988657;Scandicci Masaccio 01
7@FM0879_600;43.7645625215556;11.1810142398024;Pantano
7@FM0880_600;43.7641959313178;11.176158947113;Buon Pastore
7@FM0881_600;43.7652108303541;11.1715586919693;Cimarosa
7@FM0882_600;43.7652848633652;11.1686092383774;Piscetto
7@FM0883_600;43.7654219225576;11.1639927029944;Torre Rossa
7@FM0884_600;43.7654847153763;11.1604371145283;San Paolo
7@FM0885_600;43.7665671551262;11.1580057487224;Sgc Fi-Pi-Li
7@FM0886_600;43.7227487258725;11.1412184274788;Fonte Del Brecca
7@FM0887_600;43.7225240936279;11.1372268715262;Poggio Alle Calle
7@FM0888_600;43.7215300727102;11.1316376054086;Marciola
7@FM0889_600;43.7510975434511;11.1767755283734;Scandicci Masaccio
7@FM0890_600;43.7214221684838;11.1304233711738;Villa Cipriani
7@FM0891_600;43.7498355843183;11.1818081170883;Giotto 02
7@FM0892_600;43.7528394539059;11.1848082613117;Manzoni
7@FM0893_600;43.7541091213708;11.1835514931695;San Bartolo In Tuto
7@FM0894_600;43.7561454092859;11.1821306323926;Carducci
7@FM0895_600;43.7145207938016;11.1185663914911;Podere Bruciatella
7@FM0896_600;43.7603323607585;11.1795204245272;Scandicci Vivaldi
7@FM0897_600;43.7134376783199;11.1138501508936;Podere Ronco Vecchio
7@FM0898_600;43.7123960812793;11.111019144716;Borro Di Faeta
7@FM0899_600;43.7711605528298;11.1592934275704;Pace Mondiale
7@FM0900_600;43.7079899976213;11.1063202178114;Podere Cipresseto
7@FM0902_600;43.7041091782126;11.1036462551717;Podere Cosalza
7@FM0903_600;43.7505836581031;11.1756297394147;Pacchi
7@FM0904_600;43.7653741955149;11.1598538886753;Charta '77
7@FM0905_600;43.7653048413958;11.1647074284388;Padule
7@FM0906_600;43.7651617680749;11.1670301146265;Codignola
7@FM0907_600;43.7649189167743;11.1710480847278;Casellina
7@FM0908_600;43.7064606723473;11.0806977116201;Ripalta
7@FM0909_600;43.7646193639287;11.1815738038785;Acciaiolo
7@FM0910_600;43.7654495827149;11.1844430751617;Pisana Pestalozzi
7@FM0911_600;43.7081666257614;11.0755128009306;Via Della Fornace
7@FM0912_600;43.7086346231967;11.0732917283951;Redipuglia
7@FM0913_600;43.7080920505668;11.0756529610713;Ginestra Chiesa
7@FM0914_600;43.7152178224141;11.1417864734615;Monte Cioppoli
7@FM0915_600;43.7154393902242;11.1419743596576;Baggiolo
7@FM0916_600;43.7593367617601;11.1819159244581;Lupi Di Toscana
7@FM0917_600;43.7348691511281;11.1717807760406;Scandicci San Polo
7@FM0918_600;43.7541111604901;11.1903353911727;Piazza Matteotti
7@FM0919_600;43.7561758976785;11.1878332560599;Rossi
7@FM0920_600;43.7584256198055;11.1841296408997;Turri
7@FM0921_600;43.7613049741484;11.1771473041253;Donizetti
7@FM0922_600;43.7348590627764;11.1718378407985;Lamperi
7@FM0923_600;43.7325467147683;11.1693857488274;Fosso Di Mosciano
7@FM0924_600;43.7325055196133;11.1694215112418;Borronaccia
7@FM0925_600;43.730597443489;11.1665387591582;Villa Bianca
7@FM0926_600;43.7307273456738;11.1668103952429;La Massa
7@FM0927_600;43.7636876806768;11.1725874903756;Di Vittorio
7@FM0928_600;43.7623525517488;11.1743808445083;Luigi Boccherini
7@FM0929_600;43.7612546866247;11.1769513757033;Scandicci Scarlatti
7@FM0930_600;43.7576161652357;11.1857321728236;Turri 02
7@FM0931_600;43.7557701647632;11.1873930298003;Alfieri
7@FM0932_600;43.7546182361827;11.1883059366399;Scandicci Aleardi
7@FM0939_600;43.7277942448355;11.163375642273;Terra Rossa
7@FM0940_600;43.7277531102392;11.1634083043663;Via Di Legnaia
7@FM0941_600;43.7262145824161;11.1609722527574;Poggio All'Arrigo
7@FM0942_600;43.7261778592086;11.1610097301188;La Montaia
7@FM0956_600;43.8470865978741;11.1756758024637;Vittorio Emanuele 05
7@FM0961_600;43.8557621788611;11.1556886425443;Puccini Di Prato
7@FM0962_600;43.8595791272881;11.1592900671548;Puccini 03
7@FM0963_600;43.8614096921223;11.1617561988131;Pino
7@FM0964_600;43.8622541495118;11.16423190255;Puccini 07
7@FM0965_600;43.7238691735967;11.1559669384769;Podere Del Leone
7@FM0968_600;43.836912906333;11.1822745359968;Togliatti 04
7@FM0977_600;43.8648833539701;11.1661206466003;Calenzano
7@FM0978_600;43.8610657425842;11.1609007250669;Puccini 06
7@FM0979_600;43.8587327797525;11.1583387341035;Puccini 04
7@FM0980_600;43.8555553939768;11.1551959420254;Puccini Ponte Alla Marina
7@FM0997_600;43.7238237764045;11.1559870357692;Scandicci Le Croci
7@FM0999_600;43.7893688124805;11.2238936664511;Baracca Paganini
7@FM1000_600;43.7918866575894;11.2175706058388;Baracca Tagliaferri
7@FM1002_600;43.7910040037723;11.1504782345138;Case Papucci
7@FM1004_600;43.798802950271;11.1955791385317;Pratese Magrini
7@FM1005_600;43.7997559558147;11.1933066158542;Pratese Palagio Degli Spini
7@FM1007_600;43.8034317586942;11.1863953492184;Pratese Ponte A Giogoli
7@FM1008_600;43.7235796814781;11.1522196771256;Poggio Al Pino
7@FM1017_600;43.7235479856634;11.1522294049005;Scandicci Spazzavento
7@FM1018_600;43.723554891401;11.1465979601374;Taverna Del Diavolo
7@FM1021_600;43.8034525846642;11.1859892912939;Pratese S. Piero A Quaracchi
7@FM1022_600;43.801391174233;11.1901996731968;Pratese Sede At
7@FM1023_600;43.7995357938524;11.1932845739126;Pratese Ferrarin
7@FM1024_600;43.7987281965039;11.1957209657465;Pratese Primo Settembre
7@FM1026_600;43.7963189135867;11.2034805810435;Baracca Pistoiese
7@FM1029_600;43.7909877740291;11.2202763523681;Baracca Miccinesi
7@FM1030_600;43.7892492873496;11.2237898050244;Baracca Leoncavallo
7@FM1031_600;43.7235183475749;11.1466261399785;Via Dell'Arrigo
7@FM1043_600;43.7515623543378;11.1421822262748;Cancellacci
7@FM1044_600;43.7514227051156;11.1423841086683;Via Di Calcinaia
7@FM1046_600;43.8291257678079;11.1333753953267;La Villa
7@FM1048_600;43.8323292245444;11.1320234952333;Confini
7@FM1055_600;43.8350139485193;11.1319325497863;Confini 04
7@FM1061_600;43.7247015583268;11.1283794087621;Podere Barcaccia
7@FM1062_600;43.724707357226;11.1283097791756;Casanova
7@FM1063_600;43.7315536115316;11.1237657422532;La Roveta
7@FM1126_600;43.8217889310872;11.1405425018722;Campi Bisenzio Bellini
7@FM1127_600;43.8209558473963;11.1379122421389;Piazza Dante
7@FM1130_600;43.7315090556375;11.1237408861321;Sorgente Roveta
7@FM1133_600;43.8218062104746;11.143462291263;Campi Bisenzio Risorgimento
7@FM1143_600;43.7334244021284;11.1231442955683;Borro Di Roncigliano
7@FM1147_600;43.7334479339815;11.1230892511495;Cerchiaie
7@FM1148_600;43.7368967264755;11.1245196619343;Pruniccie
7@FM1149_600;43.7949798687588;11.1965732984529;Pistoiese
7@FM1150_600;43.7944818086097;11.192269961727;San Biagio A Petriolo
7@FM1153_600;43.7938324663157;11.181981073945;Pistoiese 11
7@FM1155_600;43.7933579771328;11.1742038825068;Pistoiese 15
7@FM1157_600;43.7928729713071;11.1668772776842;Pistoiese 19
7@FM1158_600;43.7936728963817;11.1605330269176;Pistoiese 21
7@FM1170_600;43.7401636147635;11.1221732966712;Pedata Del Diavolo
7@FM1180_600;43.7937905800101;11.1590705981429;Pistoiese 26
7@FM1182_600;43.7927796112607;11.1670525726223;La Nave Di Brozzi
7@FM1184_600;43.7931972864932;11.1737390903953;Pistoiese Sala
7@FM1187_600;43.7937211780447;11.1821510343204;Pistoiese 12
7@FM1189_600;43.794125926714;11.1887611573762;Pistoiese 08
7@FM1190_600;43.7944000573053;11.1927765822951;San Biagio A Petriolo 02
7@FM1192_600;43.740191673905;11.1221168534754;Madonnina
7@FM1193_600;43.7488004023071;11.1278549070132;Torricino
7@FM1210_600;43.7488280886829;11.1278186279678;La Buca
7@FM1224_600;43.7501709601461;11.1306452823341;Fosso Del Meriggio
7@FM1225_600;43.750185035248;11.1306147309087;Vigliano
7@FM1234_600;43.7544767250504;11.1392073096708;Via Delle Fonti
7@FM1246_600;43.7504845781458;11.2470225954985;Imperiale San Felice
7@FM1248_600;43.7574656438711;11.259871128501;Giramontino
7@FM1249_600;43.7563402121544;11.259870737333;Torre Del Gallo
7@FM1250_600;43.7546092838633;11.2590742026352;Torre Del Gallo 03
7@FM1251_600;43.7514196717766;11.2562325645533;Torre Del Gallo 05
7@FM1252_600;43.7490088666974;11.2577193098044;Pian Dei Giullari 01
7@FM1253_600;43.7503110971704;11.2494419231252;Fermi
7@FM1254_600;43.7506908702962;11.2470058924685;Imperiale San Leonardo
7@FM1255_600;43.7473663839896;11.2579136382624;Pian Dei Giullari
7@FM1256_600;43.7490597522738;11.2578779651457;Pian Dei Giullari 02
7@FM1257_600;43.7516159796211;11.2563221675373;Torre Del Gallo 06
7@FM1258_600;43.7543984721266;11.2590352152749;Torre Del Gallo 04
7@FM1259_600;43.7561653586323;11.2598345902819;Torre Del Gallo 02
7@FM1260_600;43.7575428704689;11.2600634697456;Giramontino 02
7@FM1269_600;43.8076564283252;11.253217928521;Villa Le Rose
7@FM1270_600;43.808771925785;11.2548620578114;Villa La Meridiana
7@FM1271_600;43.8104235192658;11.2567130595928;Cosimo Il Vecchio
7@FM1272_600;43.8089391902191;11.2609758296102;Massoni
7@FM1273_600;43.8110011716284;11.2611935253614;S. Maria Maddalena Dei Pazzi
7@FM1274_600;43.8120502074497;11.2639140882447;Massoni 05
7@FM1275_600;43.8130557013721;11.2654223374573;Ballodole
7@FM1276_600;43.8130010623231;11.2681757527214;I Fraticini
7@FM1277_600;43.814570353173;11.2721175975708;Massoni 11
7@FM1278_600;43.8168611521268;11.2766683671099;Massoni 13
7@FM1279_600;43.8160539717842;11.279671578089;Massoni 15
7@FM1280_600;43.807645459874;11.2667421899768;Di Careggi
7@FM1281_600;43.8091514926885;11.2643484668955;Di Careggi 10
7@FM1282_600;43.808847007717;11.2617665387435;Di Careggi 08
7@FM1283_600;43.8107071134717;11.2564859019397;Di Careggi 06
7@FM1284_600;43.8117123534969;11.253224397032;Di Careggi 04
7@FM1285_600;43.8025107875066;11.2479710887422;Pergolino Cto
7@FM1286_600;43.8033167094842;11.249566120659;Villa Ulivella
7@FM1287_600;43.8040868309737;11.2502352568461;Villa I Glicini
7@FM1288_600;43.8048561825402;11.2516285268379;Villa Aurora
7@FM1289_600;43.8056452277104;11.2552167930674;Villa La Selva
7@FM1290_600;43.8054188611075;11.2584716176515;Viuzzo Bartolommei
7@FM1291_600;43.8036578161002;11.2562375717142;Poggio Secco
7@FM1292_600;43.8026741806767;11.2540716875383;Incontri
7@FM1294_600;43.7593488092375;11.2837943314755;Dalla Costa
7@FM1295_600;43.7566632250135;11.2798646481071;Larione
7@FM1296_600;43.7532043005384;11.2803946819937;Fortini
7@FM1297_600;43.7505605575489;11.284060737216;Fortini 03
7@FM1298_600;43.7489414364782;11.2844353892358;I Moccoli
7@FM1299_600;43.7470876793994;11.283261052848;Cinque Vie
7@FM1300_600;43.7457649810512;11.2798388819113;Caduti Di Pian D'Ema
7@FM1301_600;43.7428813540882;11.2743178953685;Cinque Vie 05
7@FM1302_600;43.7420222043333;11.2708888576161;Cinque Vie 07
7@FM1303_600;43.7411787107611;11.267151165452;Cinque Vie 09
7@FM1304_600;43.7394471930555;11.2604472000181;Cinque Vie 11
7@FM1308_600;43.7545587779408;11.1391527854574;Santa Maria Del Bosco
7@FM1313_600;43.7364012926272;11.2268891692711;Pietriboni
7@FM1317_600;43.735435645071;11.2572834777957;Cinque Vie Monteripaldi
7@FM1318_600;43.7369195055245;11.2585096042063;Cinque Vie Tozzoli
7@FM1319_600;43.7385834968383;11.2596887636659;Cinque Vie Scuole
7@FM1320_600;43.7393955651141;11.2610087279408;Cinque Vie 12
7@FM1321_600;43.7411667052315;11.267270674539;Cinque Vie 10
7@FM1322_600;43.742150059114;11.2714773700313;Cinque Vie 08
7@FM1323_600;43.7428401275786;11.274353590294;Cinque Vie 06
7@FM1324_600;43.745719254527;11.2798744037925;Le Cinque Vie
7@FM1328_600;43.753247859387;11.2804677573573;Fortini 06
7@FM1329_600;43.7558736444569;11.278825407902;Fortini 04
7@FM1332_600;43.7591653574394;11.2778758805725;Fortini 02
7@FM1333_600;43.7614470783558;11.2378217507398;Foscolo Pindemonte
7@FM1334_600;43.7587032048289;11.2328779178717;Santa Maria A Marignolle
7@FM1335_600;43.7592173277838;11.229142432023;Santa Maria A Marignolle 03
7@FM1336_600;43.757040766284;11.2264856265497;Merli
7@FM1337_600;43.756092569355;11.2231633942682;Santa Maria A Marignolle 07
7@FM1338_600;43.7580752749543;11.1458415955546;Le Fonti
7@FM1339_600;43.752229372747;11.2174076784537;Santa Maria A Marignolle 11
7@FM1340_600;43.7499393960905;11.2166384242842;Marignolle
7@FM1341_600;43.7522089091817;11.217534235415;Santa Maria A Marignolle 12
7@FM1342_600;43.7540862526195;11.2191515771708;Santa Maria A Marignolle 10
7@FM1343_600;43.756050844697;11.2232255092779;Santa Maria A Marignolle 08
7@FM1344_600;43.7570117793647;11.2265870307394;Merli 02
7@FM1345_600;43.7591853235739;11.2291676404493;Santa Maria A Marignolle 04
7@FM1346_600;43.7586084029583;11.2328914710748;Santa Maria A Marignolle 02
7@FM1347_600;43.7615265310173;11.2379023554978;Foscolo Porta Romana
7@FM1348_600;43.758240446321;11.1459158222471;Lavanderia
7@FM1349_600;43.8122825982089;11.2480440369964;Oblate 01
7@FM1350_600;43.7541586023542;11.1527878685237;Casarsa
7@FM1351_600;43.7541895672092;11.1528169267607;Montaguglione
7@FM1352_600;43.8137558789943;11.2479958831597;Gore 03
7@FM1353_600;43.8149097991379;11.2488218347893;Cappelle Del Commiato
7@FM1354_600;43.8174600278195;11.2493932028126;Masse
7@FM1355_600;43.8191385752509;11.2510230144367;Masse 03
7@FM1356_600;43.8203199627777;11.2534362680553;Masse 05
7@FM1357_600;43.8223233635103;11.2552541567086;Masse 07
7@FM1358_600;43.8265044904734;11.2600860934984;Masse 09
7@FM1359_600;43.8333627627298;11.2663384008926;Dante Da Castiglione
7@FM1360_600;43.8367913464339;11.268239194791;Dante Da Castiglione 05
7@FM1361_600;43.8420614599699;11.2694418199485;Segalari
7@FM1362_600;43.8411486299613;11.2655354946826;Dante Da Castiglione 09
7@FM1363_600;43.845046614755;11.262380258927;Cercina
7@FM1364_600;43.8472682481898;11.2679396391212;Serravalle
7@FM1365_600;43.8497995422533;11.270817724056;Fondi
7@FM1366_600;43.8507561603962;11.2720623907282;Fondi 03
7@FM1367_600;43.8509199780232;11.273783949829;Docciola
7@FM1368_600;43.8486056356701;11.2758420171439;Vallecchio 01
7@FM1369_600;43.8447947976431;11.2782208182002;La Torre 01
7@FM1370_600;43.8401815106913;11.279752433945;Angiolini
7@FM1371_600;43.8368890712322;11.2841188045976;Docciola 15
7@FM1372_600;43.8355854111707;11.2865022459854;Caduti Di Montorsoli
7@FM1373_600;43.833777855913;11.2863958820503;Montorsoli 03
7@FM1374_600;43.8337945429205;11.2864618172872;Montorsoli 04
7@FM1375_600;43.8356079024796;11.2865031052227;Sesto Fiorentino Montorsoli
7@FM1376_600;43.8369208076426;11.284107577487;Docciola 16
7@FM1377_600;43.8401806424267;11.2797959374009;Angiolini 02
7@FM1378_600;43.8448162043499;11.2782760581905;La Torre 02
7@FM1379_600;43.848627910369;11.2758537501941;Vallecchio
7@FM1380_600;43.850978981662;11.2737597549293;Docciola 08
7@FM1381_600;43.8508629448563;11.2721255424689;Fondi 04
7@FM1382_600;43.8498596237986;11.2708053989667;Fondi 02
7@FM1383_600;43.8473448428794;11.2679363224342;Serravalle 02
7@FM1384_600;43.8450795187227;11.2623099728942;Caduti Di Radio Cora
7@FM1385_600;43.8411314070728;11.2654959700893;Dante Da Castiglione 10
7@FM1386_600;43.8420498172026;11.2693480828641;Segalari 02
7@FM1387_600;43.8368056138842;11.2682008036013;Dante Da Castiglione 06
7@FM1388_600;43.8333768125205;11.2663109482607;Dante Da Castiglione 02
7@FM1389_600;43.8303464102373;11.2624884474786;Masse 14
7@FM1390_600;43.8265560007552;11.2599854394686;Masse 12
7@FM1391_600;43.8233788837107;11.2564133699975;Serpiolle
7@FM1392_600;43.8219763326234;11.2548182887457;Masse 08
7@FM1393_600;43.8202234190037;11.2533098408109;Masse 06
7@FM1394_600;43.8191481535506;11.2509938421825;Masse 04
7@FM1395_600;43.8174976664552;11.2493106849196;Masse 02
7@FM1396_600;43.8149200189018;11.2487600496588;Loggia Dei Bianchi
7@FM1397_600;43.813697797523;11.2478453715276;Gore 02
7@FM1398_600;43.8122154027621;11.2482559880117;Oblate
7@FM1400_600;43.7488419345025;11.1427341073629;Pieve Di San Martino
7@FM1412_600;43.7487495263049;11.1426205811247;Sorgente
7@FM1415_600;43.710280603444;11.104038501405;Podere Muricce
7@FM1416_600;43.707644162644;11.1004516312765;Sassoli
7@FM1424_600;43.7042111948294;11.0968719308383;Il Casone
7@FM1425_600;43.753443850295;11.1544049184614;Rinaldi
7@FM1432_600;43.7521164552912;11.1347060597187;Case Margheri
7@FM1433_600;43.7521507398;11.1350395349169;Valimorta
7@FM1437_600;43.7780668184101;11.1439658765282;La Fiorita
7@FM1438_600;43.7803042461733;11.138679178663;Cimitero San Colombano
7@FM1439_600;43.7781067330915;11.1360673696655;San Colombano
7@FM1442_600;43.7691900240888;11.1335895933166;Gozzoli
7@FM1443_600;43.7684661251812;11.138117306909;Meucci
7@FM1444_600;43.7679628836581;11.1433516444293;Castelpulci
7@FM1445_600;43.7672883680941;11.1473870638535;Pieve A Settimo
7@FM1446_600;43.7660626234067;11.1548657849986;L'Olmo
7@FM1447_600;43.7658948358837;11.1566005576537;Fosso Rigone
7@FM1448_600;43.7665607967418;11.1523196599077;Di Porto
7@FM1449_600;43.7674802544347;11.1469979179629;Le Belle Ragazze
7@FM1450_600;43.7679678613391;11.1440460166282;Viottolone
7@FM1451_600;43.7685787136212;11.1378743885323;Le Fornaci
7@FM1452_600;43.769048677902;11.1336855140014;Granatieri
7@FM1458_600;43.7804482584221;11.1461231548404;Badia A Settimo
7@FM1460_600;43.7774215156386;11.1452475413332;Caduti Dello Scire'
7@FM1461_600;43.7765877446336;11.1474543723228;Falcone
7@FM1462_600;43.7758707794164;11.1491931519768;La Torre
7@FM1468_600;43.7687545921796;11.1299043020153;Capannuccia 01
7@FM1469_600;43.7698463431664;11.1169424820872;Livornese 01
7@FM1470_600;43.7699762989367;11.1116231128283;Livornese 03
7@FM1471_600;43.7696675854418;11.106398647652;Lastra A Signa
7@FM1472_600;43.7709985557945;11.0989004783604;Livornese 07
7@FM1473_600;43.772030292038;11.0961580535221;Ponte A Signa 01
7@FM1476_600;43.7771394574986;11.0961766163732;Nuova Stazione
7@FM1477_600;43.779227285381;11.0979473450637;Santelli
7@FM1478_600;43.7821284311289;11.098083010595;Repubblica 02
7@FM1480_600;43.7879777124671;11.0955488161727;Crocifisso 01
7@FM1481_600;43.789509741813;11.0922777286726;Crocifisso
7@FM1482_600;43.7715951995767;11.0928797798445;Livornese Della Torre
7@FM1483_600;43.7756730134968;11.0867703873912;Livornese 11
7@FM1484_600;43.7790339163939;11.0794687757489;Porto Di Mezzo
7@FM1485_600;43.7775239587383;11.0825369199115;Livornese 06
7@FM1486_600;43.7746891463944;11.08789179103;Livornese 04
7@FM1487_600;43.77162485385;11.0934726093384;Livornese Bellosguardo
7@FM1488_600;43.7876498324615;11.0959988140045;Crocifisso 02
7@FM1489_600;43.7848555358693;11.0971547069995;Beata Giovanna
7@FM1490_600;43.7820140262215;11.0979392043694;Repubblica 01
7@FM1491_600;43.7791810758185;11.0977670991086;Ferroni
7@FM1492_600;43.7773344081337;11.0963696086694;Scalo
7@FM1493_600;43.7750775407966;11.0929904677043;Cavallotti
7@FM1494_600;43.7737208439254;11.0948006463382;Stadio 02
7@FM1496_600;43.7708425916062;11.0993035449843;Lastra A Signa 06
7@FM1497_600;43.7694131654378;11.106768658455;Cadorna
7@FM1498_600;43.7698980345205;11.1119604780507;Lastra A Signa 04
7@FM1499_600;43.7697053719696;11.1187187983024;Lastra A Signa 02
7@FM1500_600;43.7686137254174;11.130216118225;Capannuccia 02
7@FM1501_600;43.8635547852642;11.1668626447276;Calenzano Centro
7@FM1502_600;43.7616271762256;11.3825154675467;Villamagna
7@FM1503_600;43.7615169367537;11.3869335473853;Fagiolari 02
7@FM1504_600;43.7655575192978;11.3891814394904;San Romolo 22
7@FM1505_600;43.7675007428182;11.3875319097332;Turrita 02
7@FM1506_600;43.7707189835531;11.3858320393005;San Romolo 18
7@FM1507_600;43.7732678780553;11.3838475673893;Case Di San Romolo 02
7@FM1508_600;43.7744511914627;11.3815042790328;San Romolo 14
7@FM1509_600;43.7736828775066;11.3781919777338;Torre Rossa 02
7@FM1510_600;43.7743753565497;11.375800341114;Monte Acuto 02
7@FM1511_600;43.7766465788656;11.3775152315738;San Romolo 08
7@FM1512_600;43.7780983635196;11.3723808132352;San Romolo 06
7@FM1513_600;43.7789880254439;11.3697481776978;San Romolo 04
7@FM1514_600;43.7810292298378;11.3659183279836;San Romolo 02
7@FM1515_600;43.780104685371;11.3650695301709;Di Rosano 16
7@FM1516_600;43.7746489520649;11.3626895128454;Roseto
7@FM1517_600;43.7717727477475;11.359808352892;Vallina 02
7@FM1518_600;43.7716653412114;11.3556989910657;Di Rosano 10
7@FM1519_600;43.7710153983491;11.3529284968473;Di Rosano 08
7@FM1520_600;43.767605701176;11.3448310867214;Di Rosano 06
7@FM1521_600;43.7648332625677;11.3403742293966;Di Rosano 04
7@FM1522_600;43.7627950484894;11.3353561598395;Candeli 02
7@FM1532_600;43.7602438080349;11.3314735075171;Bagno A Ripoli Di Rimaggio 04
7@FM1533_600;43.7584004042033;11.3298690391694;Rimaggio 02
7@FM1534_600;43.7579012743551;11.3275420319096;Padule 02
7@FM1535_600;43.7548078438468;11.323322974679;Arti
7@FM1538_600;43.7461157800382;11.3379892984001;La Fonte 01
7@FM1539_600;43.7430739850352;11.3414381629495;Roma 21
7@FM1540_600;43.7359419608537;11.3406199441313;Valcelli 01
7@FM1541_600;43.7312592348899;11.3441763545698;Roma 25
7@FM1542_600;43.7294877104581;11.3463108558683;Osteria Nuova 01
7@FM1543_600;43.7282942229681;11.3381647783104;Peruzzi
7@FM1544_600;43.7286368225158;11.331280429239;Peruzzi 03
7@FM1545_600;43.7273597552097;11.3237624039927;Peruzzi 05
7@FM1552_600;43.7017062196999;11.1208808550298;Buonriposo
7@FM1553_600;43.7231401623128;11.2952978810491;Tizzano
7@FM1554_600;43.7017065168708;11.1211073545336;Via Del Poggio
7@FM1555_600;43.723117899367;11.2969565677877;Tizzano 02
7@FM1556_600;43.7894532905349;11.3468065504347;Selva
7@FM1557_600;43.7225361058681;11.3209567469979;Pulicciano
7@FM1558_600;43.7201999017983;11.3195771855511;Croce A Balatro
7@FM1559_600;43.7223071761074;11.3209477181959;Pulicciano 02
7@FM1560_600;43.7262235116863;11.3209400875509;Bagno A Ripoli Togliatti
7@FM1561_600;43.7272564977133;11.3236572977486;Peruzzi 06
7@FM1562_600;43.7285708285665;11.3311170832627;Peruzzi 04
7@FM1563_600;43.7284270598417;11.3375801359371;Peruzzi 02
7@FM1564_600;43.7297702701215;11.346095509894;Osteria Nuova 02
7@FM1565_600;43.7315982401846;11.3438900373967;Roma 28
7@FM1566_600;43.7361938900658;11.340628210179;Valcelli
7@FM1567_600;43.7430984941521;11.3415602023145;Roma 24
7@FM1568_600;43.7461931289061;11.3379242021167;La Fonte 02
7@FM1570_600;43.7541574550113;11.321375318463;Arti 04
7@FM1571_600;43.7547449997648;11.3233960011515;Arti 02
7@FM1572_600;43.7579911420775;11.3276960586195;Padule 01
7@FM1575_600;43.7623609482297;11.33476800083;Candeli
7@FM1576_600;43.7644141475969;11.3395889191142;Di Rosano
7@FM1577_600;43.7674360638926;11.3447974468963;Di Rosano 05
7@FM1578_600;43.7709546528367;11.3531251437797;Di Rosano 07
7@FM1579_600;43.7716220099972;11.3558180578059;Di Rosano 09
7@FM1580_600;43.771739113273;11.3599110870504;Vallina
7@FM1581_600;43.7745542532512;11.3626668958427;Roseto 01
7@FM1582_600;43.780179320612;11.365161012709;Di Rosano 15
7@FM1583_600;43.7809852709128;11.3658063689215;San Romolo 01
7@FM1584_600;43.7788923149477;11.3697947963469;San Romolo 03
7@FM1585_600;43.7780705547443;11.3726360008137;San Romolo 05
7@FM1586_600;43.7766582862392;11.3772732688298;San Romolo 07
7@FM1587_600;43.7744778596924;11.3758999646042;Monte Acuto
7@FM1588_600;43.7736488066318;11.3783148783047;Torre Rossa 01
7@FM1589_600;43.7743891576412;11.3814567741397;San Romolo 13
7@FM1590_600;43.7732704688029;11.3837234196624;Case Di San Romolo
7@FM1591_600;43.770530748401;11.385791938155;San Romolo 17
7@FM1592_600;43.7674380628243;11.3875154383644;Turrita
7@FM1593_600;43.7655598558659;11.3890697213234;San Romolo 21
7@FM1594_600;43.7615964417824;11.3870065874602;Fagiolari
7@FM1595_600;43.7857068770646;11.1422552625186;San Donnino Fs
7@FM1598_600;43.7940523828238;11.14948447937;Trento 02
7@FM1599_600;43.7938759994634;11.1519189841085;Fosso Secco
7@FM1601_600;43.8046255568697;11.1356773333104;Campi Bisenzio Caracciolo
7@FM1602_600;43.809907971788;11.1389073106229;Palagetta
7@FM1606_600;43.8257435306209;11.1449914107385;Allende
7@FM1607_600;43.8350340612049;11.153191215804;Tomerello
7@FM1619_600;43.8393570809813;11.2096856330587;San Romolo
7@FM1620_600;43.8369517917808;11.1957498178341;Michelangelo
7@FM1630_600;43.8090326403442;11.2930988079092;Le Mura
7@FM1631_600;43.8169773422126;11.1451816498993;Palagetta 08
7@FM1633_600;43.8097672974293;11.1387988478531;Palagetta 02
7@FM1634_600;43.8062222900599;11.1359536711284;Crescia 04
7@FM1635_600;43.8030456107291;11.1332205312724;Crescia 02
7@FM1636_600;43.7946173779365;11.1500811620407;Trento 01
7@FM1638_600;43.7936864129125;11.14500454269;Molina 03
7@FM1640_600;43.7911679310028;11.1656914305883;Nave Di Brozzi
7@FM1641_600;43.7902317930002;11.1321135721829;Valico
7@FM1647_600;43.7886568905492;11.2305812853418;Maragliano Redi
7@FM1655_600;43.7891441338785;11.3510543109484;Villa Romena
7@FM1657_600;43.85771195667;11.1400982182417;Il Rosi
7@FM1661_600;43.7811893897192;11.2789297905321;Sette Santi Stadio
7@FM1673_600;43.7758163598498;11.0959082683105;Signa Fs
7@FM1674_600;43.7892979156263;11.0972013441854;Colli 12
7@FM1675_600;43.7926383782077;11.0993985413285;Colli 10
7@FM1676_600;43.7945203025346;11.1006126345653;Colli 08
7@FM1677_600;43.7984304730312;11.1036490650936;Colli 06
7@FM1678_600;43.8026491939835;11.1109389190972;Indicatorio 02
7@FM1681_600;43.8376993133572;11.132048414511;Confini 05
7@FM1684_600;43.8411540070561;11.1666406733768;Baldanzese
7@FM1685_600;43.8438534295146;11.169097313677;Baldanzese 03
7@FM1686_600;43.8446749604878;11.1696915590716;Manetti & Roberts
7@FM1687_600;43.8411701258422;11.1665028702527;Baldanzese 02
7@FM1688_600;43.8423707610588;11.1491761206229;Officine Galileo
7@FM1689_600;43.8089651873666;11.2949722922757;Case Popolari
7@FM1691_600;43.8407733181264;11.133289892977;San Quirico 02
7@FM1692_600;43.7776236280058;11.3641349169029;Il Roseto 01
7@FM1693_600;43.8027933283259;11.1109346729571;Indicatorio 01
7@FM1694_600;43.7984163089858;11.1034403589;Colli
7@FM1695_600;43.7962933685121;11.1016256636238;Colli 05
7@FM1696_600;43.7927736863769;11.0993846361699;Colli La Malfa
7@FM1697_600;43.7895409970134;11.0972020794863;Colli 09
7@FM1698_600;43.8097402759981;11.2989464503402;I Ceanzi
7@FM1699_600;43.8122184916466;11.3016052101098;Venticinque Aprile
7@FM1700_600;43.8141905782599;11.3021023643926;Fossato
7@FM1701_600;43.8171265318389;11.3002530367563;Palagio Dei Pesci
7@FM1702_600;43.8179585978392;11.2984529263866;Fiesole La Torre
7@FM1703_600;43.7287044197905;11.3420724309993;San Giorgio
7@FM1704_600;43.8173793669001;11.2953130415431;Fs Mugnone
7@FM1705_600;43.8175338719433;11.295465066074;Polveriera
7@FM1706_600;43.817853737546;11.2986988822971;La Cipressa
7@FM1707_600;43.7288367649296;11.3265892099556;Cattaneo
7@FM1708_600;43.8168243319208;11.3004197976965;Bargellino
7@FM1709_600;43.8140673098227;11.3023825791424;Le Bastiere
7@FM1710_600;43.8120592531757;11.3017734043413;Villa Vivai
7@FM1713_600;43.8101184116685;11.2991557831898;Riorbico
7@FM1714_600;43.8089859059205;11.2954149252229;Costa
7@FM1715_600;43.8091360691965;11.2931043210122;Fiesole Sant'Anna
7@FM1721_600;43.7528954063605;11.1856487100348;San Bartolo In Tuto 03
7@FM1722_600;43.7463401209897;11.1800308442398;Ponte A Vingone
7@FM1723_600;43.7427556307277;11.1758366479941;Macinuzze
7@FM1724_600;43.7396992523703;11.1736908801084;Fosso Di Ghindossoli
7@FM1725_600;43.737949277593;11.169363570303;Ballatoio
7@FM1726_600;43.7354853089772;11.1651706514515;Lo Spicchio
7@FM1727_600;43.7359781879464;11.1617270605983;Gli Alberi
7@FM1728_600;43.7335159908284;11.1571869851705;Il Melarancio
7@FM1729_600;43.7338600104095;11.1523132530171;Le Danici
7@FM1730_600;43.765208131164;11.1698053308566;Respighi
7@FM1731_600;43.7609365858339;11.1671632556748;Newton
7@FM1732_600;43.7604092681724;11.1671954559033;Bachelet
7@FM1733_600;43.7577437938951;11.1630006756756;Torricelle
7@FM1735_600;43.7519280516398;11.1524253044132;Via San Martino
7@FM1736_600;43.7509638096469;11.1479359829329;Le Corti
7@FM1737_600;43.7495558611021;11.1449921269923;Caduta
7@FM1738_600;43.7480589087445;11.1422388616795;Fabbrica
7@FM1739_600;43.7441892464668;11.1426193020642;Caselle
7@FM1740_600;43.7425331869139;11.1476589337035;Podere Oliveta
7@FM1741_600;43.7410392294298;11.1496952254732;Via Di Triozzi
7@FM1742_600;43.7380361646792;11.1507197474497;Coltinuova
7@FM1743_600;43.7347977661968;11.1510446018403;Podere Cortenuova
7@FM1745_600;43.7321847037219;11.14971712778;Sevoli
7@FM1746_600;43.7234224673032;11.1459786952024;Pian Dei Cerri
7@FM1747_600;43.7072893272622;11.1358180018373;Oratorio
7@FM1748_600;43.7052665639205;11.131797873834;San Michele A Torri
7@FM1749_600;43.7049371248939;11.1277355470232;Canto Alle Gracchie
7@FM1750_600;43.7032922133472;11.1228634877718;Casa Al Vento
7@FM1751_600;43.6991727993047;11.1188803994805;Il Poggio
7@FM1752_600;43.6951738900573;11.1097057691563;Podere Certano
7@FM1754_600;43.698248659983;11.1002687507102;Via Del Lago
7@FM1755_600;43.6994731445043;11.0982145350922;Geppetto
7@FM1756_600;43.7002267476252;11.0961543853521;San Vincenzo A Torri
7@FM1757_600;43.7020325896617;11.100778163196;Cimitero San Niccolo'
7@FM1758_600;43.7040767438073;11.1036963152778;Il Chianti
7@FM1759_600;43.7079797707214;11.1063865722027;San Niccolo' A Torri
7@FM1760_600;43.7123417508203;11.1110358556711;I Lami
7@FM1761_600;43.71342678711;11.1139521733575;Partingoli
7@FM1762_600;43.7144194609921;11.1186900531649;Peccioli Di Sopra
7@FM1763_600;43.7213870742937;11.1303740211811;Roncigliano
7@FM1764_600;43.7215095890681;11.1317703341322;Santa Maria A Marciola
7@FM1765_600;43.7225984555282;11.1373428000935;La Racchetta
7@FM1766_600;43.7226997458438;11.1413961986223;Via Di Marciola
7@FM1767_600;43.7235347163372;11.1462341047852;Via Di Mosciano
7@FM1768_600;43.7324116486327;11.1502835658304;Le Fontine
7@FM1770_600;43.733849608301;11.1521346592247;Caduti Di Mosciano
7@FM1771_600;43.7335305787488;11.1573833239289;Mosciano
7@FM1772_600;43.7359299134747;11.1618991670399;Ragnaia
7@FM1773_600;43.7354416457031;11.1653367112826;Villa Carboni
7@FM1774_600;43.7380768532074;11.1695202971477;La Costa
7@FM1775_600;43.7396612264128;11.1737966106356;Perticuzzo
7@FM1776_600;43.7427357746899;11.1759337267499;Villa Il Diluvio
7@FM1778_600;43.7710493570416;11.1594602647174;Pace Mondiale 01
7@FM1779_600;43.7685851108046;11.1569333193867;Strada Nuova
7@FM1780_600;43.7347950489874;11.1511889164237;Pretale
7@FM1781_600;43.7379533182243;11.1508161234929;La Navicella
7@FM1782_600;43.7409783807489;11.1498719229312;Calle
7@FM1783_600;43.7425997559688;11.1474306352082;Casavecchia
7@FM1784_600;43.7440138414814;11.1428505585133;Fontanaccio
7@FM1785_600;43.7482174315212;11.142427712452;San Martino Alla Palma
7@FM1786_600;43.7494315561417;11.1448991917139;Falcona
7@FM1787_600;43.7508852680665;11.1477939387492;Citille
7@FM1788_600;43.7520327289564;11.1525814603402;Via Di Citille
7@FM1789_600;43.7536436592199;11.1558547990951;Villa Antinori
7@FM1790_600;43.7578387926596;11.1631864784858;Ponte Del Ristoro
7@FM1791_600;43.7601641069615;11.1670670366623;Via Di Casellina
7@FM1792_600;43.7609769611141;11.1669333427476;Newton 02
7@FM1793_600;43.7617220084132;11.1746329128759;Pantin
7@FM1794_600;43.7703014722091;11.1523895739681;Otto Marzo
7@FM1795_600;43.8486814235639;11.1620971082729;Pratignone Fs
7@FM1796_600;43.8469253095337;11.1606932501204;Pratignone 05
7@FM1801_600;43.8473433032897;11.1612043498243;Pratignone 04
7@FM1802_600;43.7719636940259;11.1529949642467;Via Dei Pratoni
7@FM1805_600;43.7753222283972;11.1508323121273;Quattro Strade
7@FM1806_600;43.7760997744424;11.1489854599671;La Comune Di Parigi
7@FM1807_600;43.7771094557338;11.1462444974993;Borsellino
7@FM1808_600;43.7720494091826;11.1527464362881;Pratoni
7@FM1810_600;43.7701553039169;11.152628769599;Borgo Ai Fossi
7@FM1811_600;43.7683385177417;11.157595357187;Viuzzo Di Porto
7@FM1812_600;43.7713404001083;11.1578757136048;Pontignale
7@FM1813_600;43.771514604845;11.1577095859388;Pontignale 02
7@FM1814_600;43.7640922829794;11.1966598444137;Nenni Centro Commerciale
7@FM1815_600;43.7641508657315;11.1988006757;Nenni Stradone
7@FM1816_600;43.7644139733246;11.1958985399737;Codignola T1 Nenni
7@FM1819_600;43.765735929925;11.1741227550709;Spontini
7@FM1822_600;43.7640902691906;11.1760339884643;Interno Pisana
7@FM1823_600;43.7640583671893;11.1893390111339;Pestalozzi
7@FM1828_600;43.7653581199653;11.1874350521875;Frazzi
7@FM1855_600;43.7951148733988;11.2073190352642;Baracca Pietri
7@FM1860_600;43.8528635600286;11.1352902204568;Interporto
7@FM1861_600;43.8528208927256;11.1354053382651;Cellerese
7@FM1868_600;43.820622730142;11.1422370531914;Campi Bisenzio Trieste
7@FM1869_600;43.707316972792;11.3044382312449;Ema
7@FM1872_600;43.7065115152671;11.3059820394513;Lappeggi
7@FM1875_600;43.8364177725388;11.1803574091345;Enriquez Agnoletti
7@FM1876_600;43.8363133001091;11.1772531231395;San Bartolomeo
7@FM1878_600;43.7381740467117;11.0255258326517;Vecchia Chiesa
7@FM1879_600;43.8389457821669;11.1777364836753;Signorini
7@FM1881_600;43.840368990401;11.1803399030009;Chini
7@FM1882_600;43.8380354263253;11.1840755275362;Sesto Fiorentino Prato
7@FM1885_600;43.8222609558637;11.1384142797304;Francesco Ferrucci
7@FM1890_600;43.8354744098672;11.1871102472121;Calamandrei
7@FM1904_600;43.755262811421;11.1743522403075;Sette Regole
7@FM1905_600;43.7550043886936;11.1746844664235;T1 Villa Costanza
7@FM1906_600;43.7599108610461;11.1728156656861;Bartolomeo Cristofori
7@FM1907_600;43.7593452486413;11.1983803812874;San Giusto
7@FM1908_600;43.7622475609508;11.1627272492845;Newton 03
7@FM1909_600;43.7652160936607;11.1875608639708;Romero
7@FM1910_600;43.7626889563537;11.1977357589612;Stradone
7@FM1912_600;43.8216257813221;11.1282985044371;Villa Palagio
7@FM1918_600;43.7291453962269;11.0163435677873;Cardinale
7@FM1919_600;43.7292301164481;11.0164662261983;Caverni 04
7@FM1920_600;43.7621850038382;11.1627643751668;Newton 04
7@FM1921_600;43.7603167021831;11.1725430900459;Don Perosi
7@FM1925_600;43.7629030080454;11.1978414296465;San Lorenzo A Greve
7@FM1931_600;43.8234907335312;11.1426956846089;Orly
7@FM1932_600;43.7722511601883;11.1967752288416;Piombino
7@FM1934_600;43.8192666177583;11.1401337089999;Piazza Moro
7@FM1935_600;43.8216074397415;11.1406183977193;Campi Bisenzio Verdi
7@FM1936_600;43.8206856583987;11.138878744412;Campi B.Zio Vittorio Veneto
7@FM1937_600;43.8345446448812;11.131269064453;Piazza Togliatti
7@FM1944_600;43.7239431043752;11.2931994003122;Grassina 02
7@FM1948_600;43.715349008374;11.2992702476297;Pescaia
7@FM1949_600;43.7124937572381;11.3002652455282;Ricceri
7@FM1950_600;43.7086945731456;11.3017558017867;Zona Artigianale
7@FM1951_600;43.7006871802423;11.3093703229483;Castel Ruggero
7@FM1952_600;43.6954652604064;11.3235456271729;Poggio Casciano
7@FM1953_600;43.6916296858418;11.3296624863627;Bagno A Ripoli Tabernacolo
7@FM1954_600;43.6887899542158;11.3344791408263;Massa Forte
7@FM1955_600;43.6854125155423;11.3341140332972;Lizzano
7@FM1956_600;43.6834107723149;11.3405161681997;Il Palagio
7@FM1957_600;43.6764860888091;11.3476830713607;Montiani
7@FM1958_600;43.6748389860328;11.3515961488553;Terra Bianca
7@FM1959_600;43.6719995409835;11.3542706888598;Piazza Della Fiera
7@FM1960_600;43.6715639817098;11.3575480429811;Garibaldi
7@FM1961_600;43.6708429005161;11.360473106473;San Polo
7@FM1962_600;43.6715904157977;11.3570174408613;Giaggioli
7@FM1963_600;43.6720855155701;11.3541794078135;Ciocca
7@FM1964_600;43.6749310212324;11.3514990183047;Il Giaco
7@FM1965_600;43.6767885704134;11.3473957832098;Regino
7@FM1966_600;43.6834671821267;11.3399732206463;La Collina
7@FM1967_600;43.6855182618163;11.3346538669569;Cuculia
7@FM1968_600;43.6889190077609;11.3343321553094;Bagno A Ripoli San Bartolomeo
7@FM1970_600;43.691225954738;11.330263409438;Torre Dell'Olivo
7@FM1971_600;43.6954495398423;11.3235881410752;Montemasso
7@FM1972_600;43.7008174217058;11.3090694157158;Capannuccia
7@FM1973_600;43.7128846560552;11.3001239298963;Ugolino
7@FM1974_600;43.7155732696773;11.2991771630681;Spinello Aretino
7@FM1975_600;43.7199205721358;11.2958181394402;Bagno A Ripoli Grandi
7@FM1976_600;43.7203244333633;11.2947310689297;Bagno A Ripoli Di Vittorio
7@FM1977_600;43.721103680403;11.294225024737;Il Leccio
7@FM1978_600;43.7201125188059;11.2937029105832;Chianesi
7@FM1979_600;43.7188635874138;11.2934990139188;Chianesi 03
7@FM1983_600;43.7178257915329;11.2927207983886;Slargo Lippi
7@FM1984_600;43.7190777710131;11.2936385889192;Chianesi 04
7@FM1985_600;43.7202821886629;11.2937142281971;Chianesi 02
7@FM1986_600;43.7208421335156;11.2945071464923;Barducci
7@FM1987_600;43.722899243017;11.2916015206093;Pian Di Grassina Tegolaia
7@FM1988_600;43.7217172368493;11.2881347164022;Pian Di Grassina Fonti
7@FM1989_600;43.7206383167444;11.2880594952908;Pian Di Grassina Lorenzoni
7@FM1990_600;43.7200479040869;11.2847193512545;Pian Di Grassina
7@FM1991_600;43.7208450752082;11.2885251431717;Pian Di Grassina Fornaci
7@FM1992_600;43.7223156888475;11.2897217383214;Pian Di Grassina Galganotti
7@FM1993_600;43.7230623718314;11.2919972533536;Ponte Del Lepri
7@FM2000_600;43.8130496797197;11.1196124705231;Pertiche
7@FM2007_600;43.761039662498;11.2417943329836;San Giusto Della Calza
7@FM2008_600;43.8070498884736;11.2611314155831;Villa Cancelli
7@FM2009_600;43.8102928502502;11.2616575362342;Massoni 03
7@FM2010_600;43.7569300997134;11.2199119713724;I Visibelli
7@FM2011_600;43.754394744822;11.21902945436;Morelli
7@FM2026_600;43.8069119316575;11.2949119756795;Fiesole Garibaldi
7@FM2027_600;43.807168650624;11.2971456083995;Fiesole Ghirlandaio
7@FM2028_600;43.8073896646957;11.3015970346407;Caldani
7@FM2029_600;43.8082959651022;11.3047622622065;Fiesole Primo Settembre
7@FM2030_600;43.8079222890827;11.3079968173804;Peramonda
7@FM2031_600;43.8082061417998;11.3104476016929;La Querce
7@FM2032_600;43.8094209141484;11.3137955571172;Bosconi
7@FM2033_600;43.8103000934157;11.3149023403131;San Clemente
7@FM2034_600;43.8154914403481;11.3170263748161;San Michele A Muscoli
7@FM2035_600;43.8186032481411;11.319189136913;Poggiolino
7@FM2036_600;43.8267255769534;11.3261765189895;Podere Moro
7@FM2037_600;43.8318816909596;11.3296642402654;Saletta
7@FM2038_600;43.8365955830029;11.3322415295485;Le Cannelle
7@FM2039_600;43.8408095396456;11.3351273806877;Montereggi
7@FM2040_600;43.8442726040063;11.3383662740372;Vecchia Molina
7@FM2041_600;43.8508044763374;11.3394691556133;Torre Di Buiano
7@FM2042_600;43.8558910484789;11.3421738634026;Fiesole Case Nuove
7@FM2043_600;43.859258938619;11.3430121554181;Case Nuove
7@FM2044_600;43.8618271339593;11.3411027261179;Masseto
7@FM2045_600;43.8631279705235;11.3402312644655;Fiesole Quattro Strade
7@FM2046_600;43.8584339169739;11.3397333833454;Acquinvogliolo 02
7@FM2047_600;43.8582319475123;11.3372851476655;La Cascina
7@FM2048_600;43.8560812542612;11.3346290857488;Canto E Rosai
7@FM2049_600;43.8543273998447;11.3297168552074;Campolungo
7@FM2050_600;43.8447506227763;11.3239082847387;Massetino
7@FM2051_600;43.8453729205756;11.3242586346706;Molino Nuovo
7@FM2052_600;43.8543294377279;11.3293299903391;Il Molinuzzo
7@FM2053_600;43.8562096783466;11.3349136158133;Belvedere
7@FM2054_600;43.8582717125815;11.3375417783122;Fiesole Olmo
7@FM2055_600;43.8584034991554;11.3400579452901;Acquinvogliolo 01
7@FM2056_600;43.8630071250537;11.3405002969469;Indicatorio
7@FM2057_600;43.8615707759596;11.34109113374;L'Alberaccio
7@FM2058_600;43.8590690682922;11.3432266978719;San Friano
7@FM2059_600;43.8557686472758;11.3419433678314;Catena
7@FM2060_600;43.8504897164175;11.339671455054;Palagina
7@FM2061_600;43.8440079276659;11.338233211426;Acquinvogliolo
7@FM2062_600;43.8405969325526;11.3349574382585;Villa Vita
7@FM2063_600;43.8363521885176;11.3320755721684;Villa Monetti
7@FM2064_600;43.8306490997983;11.3284335720751;Saletta 01
7@FM2065_600;43.8263687424937;11.3259524840397;Il Colombaio
7@FM2066_600;43.819047826517;11.3194069242718;Il Poggiolino
7@FM2067_600;43.8153133530934;11.3170884930256;Villa Ronconi
7@FM2068_600;43.8101980880654;11.3147733248604;Monte Fanna
7@FM2069_600;43.8092585345703;11.3135978859994;Bosconi 02
7@FM2070_600;43.8080842248143;11.3102299962329;Baccano
7@FM2071_600;43.8079879115067;11.3075250530468;Fiesole Camping
7@FM2072_600;43.808310932073;11.3039623174562;Villa Rinuccino
7@FM2073_600;43.8075985003203;11.3021800481259;Fossataccio
7@FM2074_600;43.8070820558762;11.2967506762937;Borgunto
7@FM2075_600;43.8070240322561;11.2944858079152;Fiesole Gramsci
7@FM2076_600;43.8077783467852;11.3239776029107;Villa Peyron
7@FM2077_600;43.8032038748365;11.3251194430333;Castel Di Poggio
7@FM2078_600;43.7996990129572;11.3250222950586;Castello
7@FM2079_600;43.7942843827969;11.3298368508301;Podere La Fonte
7@FM2080_600;43.791015322991;11.3327439620126;Montebeni
7@FM2081_600;43.7892016976906;11.35054789948;Il Lago
7@FM2082_600;43.7875921391036;11.3576129000358;Pontanico
7@FM2083_600;43.7847709821512;11.3601598866104;Romena
7@FM2084_600;43.7843111344809;11.3654156493643;Fiesole Arno
7@FM2086_600;43.78572814015;11.3743619921778;Le Falle
7@FM2088_600;43.784226468241;11.3660259094988;Polifemo
7@FM2089_600;43.7844372567337;11.3610601631983;Compiobbi
7@FM2090_600;43.781414444588;11.3589854729948;Campacci
7@FM2091_600;43.7735310802086;11.3546620808655;Quintole
7@FM2092_600;43.7717954318526;11.3493165228014;Anchetta
7@FM2093_600;43.7716285885704;11.3491111923559;Il Ponte
7@FM2094_600;43.7734357885219;11.3546987215701;Torraccia
7@FM2095_600;43.7809804820039;11.3590724742296;Tosco-Romagnola
7@FM2096_600;43.7844141568463;11.3610887685887;Mazzini
7@FM2097_600;43.7847923820853;11.3602135457618;Sottopasso Fs
7@FM2098_600;43.7876314684032;11.3576703729802;Sambre
7@FM2099_600;43.7894983672732;11.3468036544493;Pieve Di Romena
7@FM2100_600;43.7910743378679;11.3327198474547;Tre Pini
7@FM2101_600;43.7942964207082;11.329908788121;La Montanina
7@FM2102_600;43.7996965795769;11.3251418449483;Vincigliata
7@FM2103_600;43.8032033375511;11.3251458387073;Paterno
7@FM2104_600;43.807330839876;11.3251739332835;Rio Torto
7@FM2105_600;43.7700030214354;11.3372816197626;Il Renaio
7@FM2106_600;43.7688020517175;11.3354721502397;Gualchiere
7@FM2107_600;43.7671183185303;11.3376770555118;Viacce
7@FM2108_600;43.7682835372268;11.3392521716315;Molino
7@FM2109_600;43.7288990008441;11.3268799174507;Bagno A Ripoli Mazzini
7@FM2110_600;43.728647208196;11.3422218972919;San Giorgio 02
7@FM2115_600;43.7291745827756;11.1263342917599;Roncigliano Civico 3
7@FM2116_600;43.7292267970969;11.126528625674;Roncigliano Marciola
7@FM2122_600;43.8339088436737;11.2146274960022;Biondi
7@FM2123_600;43.7667574197265;11.1875916696071;Ponte A Greve 03
7@FM2124_600;43.8367698686222;11.2106408885691;Abba
7@FM2125_600;43.8355275978976;11.2161162130654;Porcellane
7@FM2126_600;43.8363409477362;11.2017583994287;Sesto Fiorentino Don Minzoni
7@FM2127_600;43.8379183291465;11.1986274908543;Nazario Sauro
7@FM2128_600;43.841100938274;11.1966390783034;Olmo 03
7@FM2129_600;43.838920488736;11.1968451364782;Donatello
7@FM2138_600;43.7752384837902;11.0932973417911;Piazza Pratelli
7@FM2139_600;43.7934958586116;11.1031977785112;Gobetti
7@FM2140_600;43.7947403935447;11.1013738936685;Signa La Pira
7@FM2141_600;43.7303054500717;11.0195536246972;Montelupo Fiorentino
7@FM2142_600;43.7405407371948;11.0611137487817;Spazzavento
7@FM2167_600;43.8436502107676;11.1416944526025;Biancospino
7@FM2169_600;43.8183429433257;11.1435388464036;Cimabue
7@FM2170_600;43.8437728700333;11.1416350887585;Fibbiana
7@FM2172_600;43.8481919661352;11.1340224801143;Fratelli Cervi
7@FM2173_600;43.8228146818494;11.1328892114187;Xxiv Maggio
7@FM2174_600;43.8242090890226;11.129799041598;Campi Bisenzio San Lorenzo
7@FM2175_600;43.8254708497155;11.1290060458867;Tosca Fiesoli 01
7@FM2176_600;43.826641066107;11.1263598721582;Cimitero Comunale
7@FM2177_600;43.8281038386606;11.122744594429;Cimitero Misericordia
7@FM2178_600;43.8245832113356;11.120097735104;Palestro
7@FM2179_600;43.8226024768815;11.1186355259937;Gramignano
7@FM2180_600;43.8213125305389;11.1209510122626;Pista Di Atletica
7@FM2181_600;43.8184485551286;11.1229416996272;Volta Prata
7@FM2182_600;43.8166019329759;11.1273416646258;Terracini
7@FM2183_600;43.8142308077132;11.132101920352;Convento
7@FM2184_600;43.8074554029004;11.1263206721796;Del Santo
7@FM2185_600;43.8081034670543;11.1233585916024;Giardini Carraia
7@FM2186_600;43.8085062066482;11.1206483492756;Gorinello 01
7@FM2187_600;43.8060875860059;11.1185285634339;San Martino 07
7@FM2188_600;43.8065795103438;11.1111861642509;Pistoiese 39
7@FM2189_600;43.8076467046564;11.1026081798592;Pistoiese 41
7@FM2190_600;43.8091073811512;11.0917032014693;Pistoiese 43
7@FM2191_600;43.8101419628615;11.086085492888;Pistoiese 45
7@FM2192_600;43.8114625230733;11.0827931876431;Sant'Angelo A Lecore
7@FM2193_600;43.8115557607527;11.0784153060342;Crocicchio Dell'Oro
7@FM2194_600;43.8123871852771;11.0735376603918;Le Mosche
7@FM2195_600;43.8133393999156;11.0677056137774;Caiano
7@FM2196_600;43.8139685574448;11.0640216107283;Carcerina
7@FM2197_600;43.8099708131018;11.0865830616698;Pistoiese 50
7@FM2198_600;43.8089675003463;11.0922127160806;Pistoiese 48
7@FM2199_600;43.8074690793644;11.1034535569838;Pistoiese 46
7@FM2200_600;43.8064097135571;11.1120721808756;Pistoiese 44
7@FM2202_600;43.8154990001253;11.128067178943;Torricella
7@FM2203_600;43.8177499054534;11.1290315511067;San Martino
7@FM2204_600;43.8190796018623;11.1286995622478;Manetti
7@FM2205_600;43.8216731241978;11.1204415043297;Palestro 02
7@FM2206_600;43.8229390827617;11.1189334510975;Palestro 01
7@FM2207_600;43.8265623953134;11.1211478518652;Chiella
7@FM2208_600;43.8270449108247;11.1252207446245;Cimiteri
7@FM2209_600;43.8484292111627;11.1336559151743;Marinella
7@FM2210_600;43.8497760788861;11.1326602697273;Il Pecci
7@FM2211_600;43.7521524774027;11.1790572834629;Ciliegi
7@FM2212_600;43.7519665527764;11.1791281640521;Ciliegi 02
7@FM2214_600;43.7953927934141;11.1488256053209;Scuola Verga
7@FM2220_600;43.8386720725184;11.1992273625001;Sesto Fiorentino Conti
7@FM2221_600;43.8563143999473;11.1450065148557;Calenzano Fs
7@FM2263_600;43.7764514387327;11.143916210598;Porto
7@FM2264_600;43.7779894782083;11.1442489130234;La Fiorita 02
7@FM2275_600;43.7727081712099;11.1540995563069;Botteghino Borgo Ai Fossi
7@FM2279_600;43.7540294296711;11.1821053798745;Colombo 01
7@FM2280_600;43.7520070140322;11.180145649374;Fanfani 01
7@FM2281_600;43.7476112549411;11.1735659025002;Ponte Di Formicola
7@FM2282_600;43.7469097976519;11.1758877671383;Triozzi
7@FM2283_600;43.7496166547459;11.1748743211891;Cooperazione
7@FM2284_600;43.7521923672175;11.1805057521546;Fanfani 02
7@FM2285_600;43.7542272728713;11.1823863353287;Colombo 02
7@FM2286_600;43.7577711253545;11.1825717140065;Francoforte Sull'Oder
7@FM2290_600;43.8637817165341;11.1691372248703;Giusti Betti
7@FM2297_600;43.7750904591493;11.1346273133007;Casa Del Popolo
7@FM2298_600;43.7726016877708;11.1350714726943;Pio La Torre
7@FM2299_600;43.8059531297845;11.1378910428136;Pt San Piero
7@FM2300_600;43.8070762351243;11.1393380664821;Rose
7@FM2301_600;43.8109835345448;11.0858345647153;Campi Bisenzio Berlinguer
7@FM2302_600;43.7561637019036;11.1994873740267;Delle Bagnese
7@FM2303_600;43.7530305988547;11.2021541152531;Delle Bagnese 03
7@FM2304_600;43.7433389672618;11.2138954445125;Ponte All'Asse 01
7@FM2308_600;43.7531556192865;11.2016936606583;Delle Bagnese 04
7@FM2309_600;43.7564450787737;11.1992339736419;Delle Bagnese 02
7@FM2310_600;43.8153890008188;11.1438216909664;Palagetta 06
7@FM2313_600;43.73817463127;11.2590198284433;Cavatori Cinque Vie
7@FM2314_600;43.7359036383805;11.2561769210847;Cave Monteripaldi Cascine
7@FM2405_600;43.8373832007241;11.1539381991104;Allende Einstein
7@FM2406_600;43.8354687854188;11.1532847165752;Maestri Del Lavoro
7@FM2407_600;43.7530677756583;11.3176010034401;Bagno A Ripoli Robinson
7@FM2408_600;43.7404652423343;11.2980959322253;Piazza Bacci
7@FM2409_600;43.746542764991;11.3128113106797;Ritortoli Casanuova
7@FM2410_600;43.7466543732569;11.3128575262274;Ritortoli Baroncelli
7@FM2411_600;43.7399672788375;11.297114465152;Ferrero
7@FM2484_600;43.845332394399;11.1205380156946;Campi Bisenzio Maiano
7@FM2485_600;43.8173687796032;11.1253234561601;Mammoli
7@FM2486_600;43.7686938368288;11.1481696263947;Scuola Pettini
7@FM3001_600;43.7699093381314;11.3409773317104;Campati
7@FM3008_600;43.744712490426;11.124241963864;Via Di Roncigliano
7@FM3009_600;43.7446800755935;11.1242904941132;Bricoli
7@FM3017_600;43.7754762359278;11.3631443225831;Il Roseto
7@FM3018_600;43.8302963131035;11.2625176464849;Masse 11
7@FM3019_600;43.7541562126092;11.1785617530853;De Andre'
7@FM3022_600;43.7614761186937;11.1997038170726;Ronco Lungo
7@FM3023_600;43.784326806374;11.2397955037156;Maragliano San Iacopino
7@FM3030_600;43.7269933015971;11.0949928199478;Inno
7@FM3031_600;43.7156974972399;11.079015782847;Scappella
7@FM3037_600;43.7178968704598;11.2920950695933;Costa Al Rosso
7@FM5061_600;43.8468423826776;11.1452687125553;Telecom
7@FM5064_600;43.8551174024856;11.1502499533311;Nome Di Gesu'
7@FM5154_600;43.8154151261915;11.1401763824668;Scuole
7@FM5174_600;43.7940958349672;11.1763229233417;Brozzi Golubovich
7@FM5356_600;43.7767883181806;11.1442105684014;Campo Sportivo
7@FM5366_600;43.776206728248;11.1453259893651;Gemmi Interna
7@FM5414_600;43.7653490554136;11.1867327938707;Prati
7@FM5432_600;43.8263670239679;11.1982093957791;Moravia
7@FM5435_600;43.826190779507;11.1979559062605;Via Di Rimaggio
7@FM5446_600;43.7158247996875;11.2957446648074;Cimitero San Martino
7@FM5473_600;43.7522730517168;11.1871180978228;Cioppi
7@FM5529_600;43.7642047410987;11.185366522505;Giovanni Prati
7@FM5534_600;43.784962809566;11.3643803616807;Media Compiobbi
7@FM5536_600;43.7846254249518;11.3711011712915;Aretina Pignino
7@FM5537_600;43.7853149432332;11.3725824665046;Aretina Murri
7@FM5642_600;43.8385943410277;11.2067592526112;Rapisardi
7@FM5643_600;43.8392411689234;11.2113862328837;Colonnata
7@FM5644_600;43.8378252484474;11.2106158248783;Pepe
7@FM5645_600;43.8372579429791;11.2088518740949;Ugo Bassi
7@FM5773_600;43.7750876919873;11.1429507722645;Porto 02
7@FM5841_600;43.7598387493034;11.1921687584492;Scuola Spinelli
7@FM5843_600;43.7616121274467;11.1913088342551;Scuola Campana
7@FM5858_600;43.7684519404775;11.1338195938464;Barontini
7@FM5859_600;43.7683411868972;11.1339647445167;Barontini 02
7@FM5864_600;43.7860802174567;11.0976340682482;Macelli
7@FM5865_600;43.7914247092534;11.0985652471218;Pistelli
7@FM5868_600;43.7912982919477;11.0983402085528;Setaiolo
7@FM5869_600;43.7697258763367;11.1029901858253;Fs Lastra A Signa
7@FM5870_600;43.7671903715026;11.1028003702643;Variante Rimaggio
7@FM5871_600;43.7649524455981;11.102096111513;Vecchia Pisana
7@FM5872_600;43.7633345926334;11.1019447106246;Villa Il Serraglio
7@FM5873_600;43.7614879855375;11.100279051599;Borro Di Rimaggio
7@FM5874_600;43.7582514428175;11.0968351239652;Poggio Del Mandorlo
7@FM5875_600;43.7527501371716;11.0919307677863;Villa Bartolini
7@FM5876_600;43.751357785828;11.0907721547105;Scorciatoia
7@FM5877_600;43.7477365664089;11.0893931949968;Maremmana
7@FM5878_600;43.742295205156;11.0861193557016;Le Quattro Strade
7@FM5885_600;43.7115155948608;11.0755337729105;Lastrico
7@FM5887_600;43.7095229754393;11.0704784654046;De' Morelli
7@FM5888_600;43.7108234186848;11.0682735292693;Ginestra Fiorentina
7@FM5889_600;43.7154927096361;11.0692177698585;Case Passeri
7@FM5890_600;43.720524898382;11.0727508175035;Case Poccianti
7@FM5891_600;43.7261490768406;11.077604824082;Villa Allegri
7@FM5892_600;43.7304361098275;11.0815045981845;La Luna
7@FM5893_600;43.7367163995213;11.0817361953858;Spicchiello
7@FM5894_600;43.7423765259442;11.0861035524703;Le Sorti
7@FM5895_600;43.7471052539481;11.089205111838;Poggio Ramerino
7@FM5896_600;43.75086922104;11.090655775509;Il Pontaccio
7@FM5897_600;43.7528815814256;11.0921278731116;Belfiore
7@FM5898_600;43.75792336593;11.0965596948706;Tiro A Segno
7@FM5899_600;43.761708640605;11.1007650510325;La Falterona
7@FM5900_600;43.7635874433006;11.1019038747966;Molino Della Falterona
7@FM5901_600;43.7648408018463;11.1020471654707;Ponte Torto
7@FM5902_600;43.7673398911219;11.1027481497144;Vecchia Pisana S. Lucia
7@FM5903_600;43.7698301920422;11.1031926337887;Lastra A Signa Rimaggio
7@FM5904_600;43.7717644045502;11.1057205664865;Di Sotto
7@FM5907_600;43.7305427556673;11.1007660200245;Pianacci
7@FM5908_600;43.7246337843529;11.0918300566473;La Casetta
7@FM5909_600;43.7210520134564;11.0865689360063;Villa Martorelli
7@FM5910_600;43.7169305687243;11.0827467996192;San Martino A Carcheri
7@FM5911_600;43.7134445651748;11.0776422783018;Carcheri
7@FM5923_600;43.7423711979307;11.0846689983955;Sant'Andrea
7@FM5924_600;43.7449009271329;11.0822155213297;Case Buchette
7@FM5925_600;43.7467554261196;11.0807459999842;Gello
7@FM5926_600;43.7490209554099;11.077467966524;San Salvatore
7@FM5927_600;43.7482443616164;11.0741249557038;Villa Medici
7@FM5928_600;43.7479498584401;11.0724924275976;Il Pinone
7@FM5930_600;43.746165625371;11.0690992929248;Malmantile
7@FM5931_600;43.7448705045813;11.0675301962752;Lorenzo Lippi
7@FM5932_600;43.7439484911767;11.0652428295114;San Pietro In Selva
7@FM5934_600;43.743839381406;11.0650527906448;Malmantile De Gasperi
7@FM5935_600;43.7448202015121;11.067573484206;Le Macine
7@FM5936_600;43.7462319861933;11.0691636775865;Malmantile Piazza Piave
7@FM5937_600;43.7479908514261;11.0727142966497;Via Ferrucci
7@FM5938_600;43.748197774041;11.0739634389542;Le Mura
7@FM5939_600;43.7490519248917;11.0777453868053;Sp 73
7@FM5940_600;43.7468195416278;11.0806861233383;Via Di Gello
7@FM5941_600;43.7449511224096;11.0821784515582;Bracciatica
7@FM5942_600;43.7423595957259;11.0848114115711;Pollaiolo
7@FM5947_600;43.8721462378219;11.1703025871424;Chiusa 01
7@FM5948_600;43.8782698277092;11.176622472929;Chiusa 03
7@FM5949_600;43.8826209167751;11.1805059240532;Chiusa 05
7@FM5950_600;43.8858675483867;11.1814008839745;Bellini 01
7@FM5951_600;43.8898287007495;11.182571709301;Bellini 03
7@FM5952_600;43.8936650567947;11.1832543487264;Di Carraia
7@FM5953_600;43.8959136091902;11.183373891418;Grandi
7@FM5954_600;43.8971673403999;11.1837263275153;Santi
7@FM5955_600;43.8977073712446;11.1867973971331;Calenzano Carraia
7@FM5960_600;43.8939610813335;11.1844884056508;Bellini 06
7@FM5961_600;43.8900369329181;11.1825536711199;Bellini 04
7@FM5962_600;43.8860158815661;11.1814125238705;Bellini 02
7@FM5963_600;43.8878681787475;11.1918843869204;Di Legri
7@FM5964_600;43.894089441675;11.2000824604038;Di Legri 03
7@FM5965_600;43.9085159945627;11.2164483786893;Di Legri 05
7@FM5966_600;43.9110399519617;11.2188428675767;Di Legri 07
7@FM5967_600;43.9140659813961;11.2241192723998;Legri
7@FM5968_600;43.9113296276151;11.2189938030218;Di Legri 08
7@FM5969_600;43.9081806654789;11.2160980738169;Di Legri 06
7@FM5970_600;43.8946852233645;11.2002351344029;Di Legri 04
7@FM5971_600;43.888212129476;11.1924930661828;Di Legri 02
7@FM5972_600;43.8824369034693;11.1802409787906;Chiusa 06
7@FM5973_600;43.8780884392204;11.1764555502264;Chiusa 04
7@FM5974_600;43.8725024393212;11.1707465168852;Chiusa 02
7@FM5975_600;43.8964496930498;11.1755681797003;Cimitero Carraia
7@FM5976_600;43.7728011552629;11.0904492618183;Livornese
7@FM5977_600;43.7758904287513;11.0701182214362;La Lisca
7@FM5979_600;43.7603460137829;11.0591454447141;Brucianesi
7@FM5980_600;43.7581284944697;11.0537899931648;Livornese 17
7@FM5981_600;43.7658516145937;11.0390698361705;Camaioni
7@FM5982_600;43.7560058888372;11.0302405079976;Livornese 21
7@FM5984_600;43.7364239286396;11.0235948667564;Montelupo Gramsci
7@FM5985_600;43.7347992285826;11.0208783759241;Montelupo Matteotti 01
7@FM5986_600;43.7366659682179;11.0239087427228;Montelupo Gramsci 02
7@FM5987_600;43.7372296975967;11.0271532446244;Bozzeto
7@FM5988_600;43.7564535317084;11.0301298789849;Livornese 16
7@FM5989_600;43.7658363941754;11.0396703132677;Camaioni 02
7@FM5990_600;43.7579657753566;11.0548278748344;Livornese 14
7@FM5991_600;43.7606775590277;11.0593034066584;Brucianesi 02
7@FM5992_600;43.7761955139654;11.0701753473626;La Lisca 02
7@FM5993_600;43.7787305668907;11.0795638817945;Porto Di Mezzo Gramsci
7@FM5994_600;43.7787431312079;11.0796155759966;Porto Di Mezzo Livornese
7@FM5999_600;43.8364543657825;11.1930542325956;Presciani
7@FM6000_600;43.732372393658;11.020282808944;Caverni
7@FM6004_600;43.7325745259775;11.0205627755704;Caverni 02
7@FM6005_600;43.7347257096598;11.0215071940456;Montelupo Matteotti 02
7@FM6006_600;43.7385084987453;11.0294192267794;Montaluzzo
7@FM6011_600;43.7323798685937;11.0968243229578;Podere Barca
7@FM6013_600;43.7364399918847;11.0963606986508;Marliano
7@FM6700_600;43.8053131519806;11.1153776877634;Indicatorio Pistoiese
7@FM6701_600;43.8023472639655;11.1257649227225;Campana 2 Giugno
7@FM6702_600;43.7967906296015;11.1258444061991;San Mauro Piazza Moro
7@FM6703_600;43.7948852030824;11.1276008790866;San Mauro Fedi
7@FM6704_600;43.7932166161569;11.1243721828727;San Mauro Balduccia
7@FM6705_600;43.7926964482627;11.1478573513863;Trento San Donnino
7@FM6706_600;43.7844740812555;11.0926705727858;Xx Settembre Scuole
7@FM6707_600;43.7836327809461;11.0892670693544;Alberti Cimitero
7@FM6708_600;43.7809776500996;11.0908709474607;Signa Castracani
7@FM6709_600;43.7787659775934;11.0931548431625;Signa Garibaldi
7@FM6710_600;43.7777614811273;11.0914671146543;Signa Di Castello
7@FM6711_600;43.7762294730022;11.0925273562949;Signa Cavalcanti
7@FM6712_600;43.7907071499988;11.1305225046576;Molina Dei Bassi
7@FM6713_600;43.7920878670038;11.1284197925629;San Mauro Molina
7@FM6714_600;43.7942843370589;11.129406691831;San Mauro Piazza Ciampi
7@FM6715_600;43.7958791549808;11.1298253684979;San Mauro Pozzo Rosso
7@FM6716_600;43.7967639682901;11.127518408438;Centro Sportivo Sorms
7@FM6717_600;43.7984916252903;11.127331127888;San Mauro Lavatoi
7@FM6718_600;43.8023359546756;11.1258888335115;Campana Centro Sportivo
7@FM6719_600;43.8038506926439;11.1257731924757;Signa Primo Maggio
7@FM6720_600;43.8049980652043;11.1144031032298;Indicatorio Tiziano
7@FM6721_600;43.786183678702;11.0966574407077;Colli Macelli
7@FM6722_600;43.7851949300468;11.0950958200427;De Gasperi Scuole
7@FM6723_600;43.81333303284;11.0628185305504;Signa De Amicis
7@FM6724_600;43.8122258325608;11.0737465493371;Pistoiese Molino
7@FM6725_600;43.8086599422562;11.0802123607186;Bardazzi Pertini
7@FM6726_600;43.8012293508942;11.074915207436;Bardazzi Don Lastri
7@FM6727_600;43.7997731944632;11.0747824397694;Piazza Lecore
7@FM6728_600;43.7980740593109;11.0766254605858;Montagliari
7@FM6729_600;43.7878125246616;11.0829191036317;Castelletti
7@FM6730_600;43.7837700490228;11.0888308050576;Castelletti Cimitero
7@FM6731_600;43.7877257410466;11.0832345608485;Castelletti Beccheria
7@FM6732_600;43.797953756572;11.0768046393818;Montagliari Della Mora
7@FM6733_600;43.8000638329167;11.074643332509;Della Rinalda Piazza Lecore
7@FM6734_600;43.8010848494807;11.07493972792;Signa Bardazzi
7@FM6735_600;43.808506300869;11.080244323736;Bardazzi Pistoiese
7@FM6736_600;43.810446685118;11.0839421043718;Pistoiese Bardazzi
7@FM6737_600;43.7915142005732;11.126127792393;San Mauro Della Lama
7@FM7039_600;43.8409415707839;11.1334404966563;San Quirico
7@FM7041_600;43.7395969155049;11.0271080901735;Sanminiatello
7@FM7042_600;43.7337151629067;11.0199585606905;Porro
7@FM7043_600;43.7335330306179;11.0198204440276;Giro Delle Mura
7@FM7072_600;43.8284852070722;11.133445844628;Scuola Garibaldi
7@FM7112_600;43.8215221694969;11.1365164039539;Santo Stefano
7@FM7113_600;43.8214654872079;11.1364180091508;Primo Maggio
7@FM7114_600;43.8230762486758;11.1333237351541;Ponte Sul Bisenzio
7@FM7125_600;43.8615818458244;11.1616986491337;Cimitero Calenzano
7@FM7129_600;43.7692963422217;11.1026023990177;Lastra A Signa Fs
7@FM7169_600;43.7635669478547;11.059619964187;Navicellai
7@FM7205_600;43.8487237896712;11.1624749744098;Caponnetto
7@FM7216_600;43.7616495194368;11.1763119522497;Donizetti Scuola Marconi
7@FM8801_600;43.7967396589519;11.2056539981359;Gori Geminiani
7@FM8820_600;43.7992363123837;11.2352446614543;Panciatichi Rifredi Fs
7@FM8821_600;43.8027580068339;11.2474060999275;Palagi T1 Careggi
7@FM8822_600;43.7985516338487;11.2455618027563;Alderotti Del Garbo
7@FM8848_600;43.799271742098;11.2078441627458;Santoni T2 Guidoni
7@FM8849_600;43.7982438404236;11.2074019776269;Geminiani Poste
8@MLF024_600;43.7284249973943;11.0123510159463;Montelupo3 Sn
9@F0002_600;43.7777265748945;11.2384886192965;Stazione Leopolda
BRP009_600;43.7376835576055;11.2974043016504;Chiantigiana Longo
BRP012_600;43.7553032657394;11.3179155664687;Gobetti Volta Granacci
BRP013_600;43.7483297200317;11.3289496718473;Roma Otto Marzo
BRP015_600;43.7481935853103;11.3350821026465;Roma Martellina
BRP016_600;43.7479451597493;11.3352605259258;Roma Parcheggio
BRP037_600;43.7375251499936;11.2974463605416;Cimitero San Piero A Ema
BRP042_600;43.7534403783561;11.3134326233869;Roma Volta Gobetti
BRP058_600;43.7524672261134;11.3187997102761;Roma Robinson
BRP059_600;43.7522188033001;11.3194474759633;Roma Procacci
BRP062_600;43.7323101811027;11.305586201613;Ospedale Annunziata
BRP063_600;43.7324952139863;11.3053403144784;Osma Parcheggio
BRP094_600;43.7346778859569;11.2966576115833;Chiantigiana Dell'Antella
BRP095_600;43.7338348866706;11.296971003502;Chiantigiana Belmonte
BRP098_600;43.7333504092455;11.2984212637081;Di Antella Belmonte
BRP106_600;43.7334330732964;11.2987876197003;Di Antella Ponte A Niccheri
BRP117_600;43.7540975570679;11.3085407407692;Roma Rodolico
BRP184_600;43.7281084356297;11.2950626616927;Chiantigiana Alighieri
BRP185_600;43.7262222926156;11.2929108269881;Chiantigiana Borgo Sani
BRP186_600;43.7242185682555;11.2931747172124;Grassina Umberto I
BRP187_600;43.7265224828108;11.2932062862012;Chiantigiana Bartolini
BRP188_600;43.728824699387;11.2955817937832;Chiantigiana Campigliano
BRP190_600;43.73566367045;11.2966627109586;Chiantigiana Ponte A Niccheri
BRP201_600;43.754798434677;11.3190559060186;Gobetti Volta Perosi
BRP205_600;43.7314016200497;11.3106715524122;Di Antella 05
BRP206_600;43.7300945627542;11.3154170150862;Di Antella Torricella
BRP207_600;43.7292726085391;11.3170229527225;Brig. Partigiane Torricella
BRP208_600;43.7281462511809;11.3193646256602;Brig. Partigiane Giardini
BRP209_600;43.7264785650535;11.3216808972536;Antella
BRP210_600;43.7280870949894;11.3201673159755;Di Antella Peruzzi
BRP211_600;43.7295347228807;11.3173037692393;Di Antella Pertini
BRP212_600;43.7303037729413;11.3150898416369;Di Antella Romanelli
BRP213_600;43.7318599525084;11.3093776882568;Di Antella 06
BRP216_600;43.7459707545148;11.3380443036644;Croce A Varliano
BRP217_600;43.7527402569768;11.3173244147545;Roma I Ponti
BRP218_600;43.7483065907528;11.330534549508;Roma Borrani
BRP219_600;43.7486087250819;11.3278066795975;Roma Dallapiccola
BRP220_600;43.7496785870344;11.3245992018035;Roma Mattei
BRP221_600;43.7520133623498;11.3211980013273;Roma Fratelli Orsi
BRP224_600;43.7538990181123;11.3103450301503;Roma Olmi
BRP234_600;43.7538394801959;11.3099281852276;Roma Pieve A Ripoli
BRP235_600;43.7534692406503;11.3128965278837;Roma Bocci
BRP238_600;43.7507564916423;11.3225835865092;Roma Agnoletti
BRP239_600;43.7492493305206;11.3254594396997;Roma Due Giugno
BRP241_600;43.7481729441434;11.3329481841622;Roma Giusiani
CAL006_600;43.8459455756497;11.1802714126735;Alighieri Il Neto
CAL008_600;43.8590479900353;11.1749474854093;Giusti Tessitori
CAL009_600;43.8607716237935;11.1715106088892;Giusti Carpugnane
CAL026_600;43.8476106038017;11.1777071235242;Cimitero Settimello
CAL027_600;43.8452130440631;11.1591121080145;Pratignone Allende
CAL038_600;43.8458393299658;11.1801773495224;Alighieri Angiolieri
CAL039_600;43.849428185509;11.1796534260347;Alighieri Della Chiesa
CAL040_600;43.8560764630344;11.178984286813;Giusti Cantine
CAL041_600;43.8590221820581;11.1753571648063;Giusti Petrarca
CAL042_600;43.8600435505967;11.1730192248332;Giusti Leopardi
CAL044_600;43.8549021168235;11.1499684874679;Di Capalle Del Lavoro
CAL046_600;43.8654030496924;11.1681507216553;Municipio Calenzano
CAL055_600;43.8562142367365;11.1788415527744;Giusti Cavalcanti
CAL067_600;43.8489971384696;11.171795301239;Vittorio Emanuele Sottopasso A1
CAL068_600;43.8528585424631;11.1635482381512;Di Prato Centro Commerciale
CAL071_600;43.8504055217134;11.1685121946292;Vittorio Emanuele Caponnetto
CAL072_600;43.848694720845;11.1722447577736;Vittorio Emanuele Baldanzese
CAL073_600;43.847244580888;11.1751808166319;Vittorio Emanuele San Morese
CAL082_600;43.8507525637431;11.1680162384645;Vittorio Emanuele Casello A1
CAL083_600;43.8544241733793;11.1571723448672;Di Prato La Fogliaia
CAL085_600;43.8536726266823;11.159065953873;Di Prato Larga
CAL086_600;43.8520008781318;11.1641470697753;Vittorio Emanuele Pratignone
CAL092_600;43.8551174024856;11.1502499533311;Di Capalle Di Prato
CAL093_600;43.857347790524;11.1573042304531;Puccini Risorgimento
CAL094_600;43.8635547852642;11.1668626447276;Calenzano Parco Della Resistenza
CAL095_600;43.9110399519617;11.2188428675767;Di Legri Del Saletto
CAL125_600;43.8615818458244;11.1616986491337;Cimitero Calenzano
CAL161_600;43.8557621788611;11.1556886425443;Puccini Di Prato
CAL162_600;43.8595791272881;11.1592900671548;Puccini Larga
CAL163_600;43.8614096921223;11.1617561988131;Puccini Del Pino
CAL164_600;43.8622541495118;11.16423190255;Puccini Del Lago
CAL205_600;43.8487237896712;11.1624749744098;Caponnetto Pratignone Fs
CAL213_600;43.8613847712229;11.1663982655682;Pertini Biblioteca
CAL216_600;43.8614134190806;11.1667866063853;Pertini Don Milani
CAL221_600;43.8563143999473;11.1450065148557;Calenzano Fs
CAL241_600;43.8389451245828;11.1708318742714;Olmi Gelsi
CAL242_600;43.8390026105686;11.1704125950093;Olmi Pertini
CAL290_600;43.8637817165341;11.1691372248703;Giusti Betti
CAL465_600;43.8528985544606;11.1794408397436;Alighieri Arrigo Da Settimello
CAL612_600;43.8532089645827;11.1792157561267;Alighieri Goldoni
CAL684_600;43.8411540070561;11.1666406733768;Baldanzese Dei Gelsi
CAL685_600;43.8438534295146;11.169097313677;Baldanzese Degli Olmi
CAL686_600;43.8446749604878;11.1696915590716;Manetti & Roberts
CAL687_600;43.8411701258422;11.1665028702527;Baldanzese Del Pratignone
CAL795_600;43.8486814235639;11.1620971082729;Pratignone Fs
CAL796_600;43.8469253095337;11.1606932501204;Pratignone Zona Industriale
CAL800_600;43.8449213665318;11.1590627078772;Pratignone Olmi
CAL801_600;43.8473433032897;11.1612043498243;Pratignone Delle Calandre
CAL835_600;43.8590576140603;11.1637037525921;Pertini Tigli
CAL836_600;43.8580299670892;11.161924894287;Calenzano Universita'
CAL838_600;43.8589746226397;11.1637713545633;Pertini Universita'
CAL945_600;43.8433977176726;11.1830941336924;Pratese Parco Del Neto
CAL947_600;43.8721462378219;11.1703025871424;Della Chiusa Delle Bartoline
CAL948_600;43.8782698277092;11.176622472929;Della Chiusa Valigarri
CAL949_600;43.8826209167751;11.1805059240532;Della Chiusa Di Legri
CAL950_600;43.8858675483867;11.1814008839745;Bellini La Ginoriana
CAL951_600;43.8898287007495;11.182571709301;Bellini A1
CAL952_600;43.8936650567947;11.1832543487264;Di Carraia Scuole
CAL953_600;43.8959136091902;11.183373891418;Grandi Santi
CAL954_600;43.8971673403999;11.1837263275153;Santi Buozzi
CAL955_600;43.8977073712446;11.1867973971331;Bellini Santi
CAL960_600;43.8939610813335;11.1844884056508;Bellini Toscanini
CAL961_600;43.8900369329181;11.1825536711199;Bellini
CAL962_600;43.8860158815661;11.1814125238705;Bellini Travalli
CAL963_600;43.8878681787475;11.1918843869204;Di Legri Di Leccio
CAL964_600;43.894089441675;11.2000824604038;Di Legri Di Signorina
CAL965_600;43.9085159945627;11.2164483786893;Di Legri Lago
CAL966_600;43.8489193923929;11.1798945920762;Alighieri Giovanni Xxiii
CAL967_600;43.9140659813961;11.2241192723998;Legri
CAL968_600;43.9113296276151;11.2189938030218;Di Legri Parco Pubblico
CAL969_600;43.9081806654789;11.2160980738169;Di Legri Di Volmiano
CAL970_600;43.8946852233645;11.2002351344029;Di Legri Sp107
CAL971_600;43.888212129476;11.1924930661828;Di Legri Di Davanzello
CAL972_600;43.8824369034693;11.1802409787906;Della Chiusa Di Davanzello
CAL973_600;43.8780884392204;11.1764555502264;Della Chiusa Sp8
CAL974_600;43.8725024393212;11.1707465168852;Della Chiusa Del Colle
CAL975_600;43.8964496930498;11.1755681797003;Cimitero Carraia
CAL977_600;43.8648833539701;11.1661206466003;Calenzano
CAL978_600;43.8610657425842;11.1609007250669;Puccini Mascagni
CAL979_600;43.8587327797525;11.1583387341035;Puccini Del Molino
CAL980_600;43.8555553939768;11.1551959420254;Puccini Ponte Alla Marina
CBI000_600;43.8130496797197;11.1196124705231;Pertiche
CBI001_600;43.8448476567302;11.1407343348309;Gkn
CBI002_600;43.7910040037723;11.1504782345138;Di San Donnino Case Papucci
CBI004_600;43.8177770104357;11.1215252427799;Barberinese Volta Prata
CBI013_600;43.8447902038024;11.1413978202635;I Gigli
CBI018_600;43.8215221694969;11.1365164039539;Santo Stefano Matteotti
CBI019_600;43.8409415707839;11.1334404966563;San Quirico Cimitero
CBI020_600;43.8436502107676;11.1416944526025;San Quirico Einstein
CBI021_600;43.8183429433257;11.1435388464036;Tesi Cimabue
CBI022_600;43.8481919661352;11.1340224801143;Fratelli Cervi Marinella
CBI023_600;43.8245832113356;11.120097735104;Del Paradiso
CBI024_600;43.8226024768815;11.1186355259937;Palestro Di Gramignano
CBI025_600;43.8254708497155;11.1290060458867;Fiesoli Barberinese
CBI026_600;43.826641066107;11.1263598721582;Fiesoli Cimitero Comunale
CBI027_600;43.8281038386606;11.122744594429;Fiesoli Cimitero Misericordia
CBI028_600;43.8065795103438;11.1111861642509;Pistoiese Fra' Guittone
CBI029_600;43.8076467046564;11.1026081798592;Pistoiese Del Maggino
CBI030_600;43.8091073811512;11.0917032014693;Pistoiese Del Tegolare
CBI031_600;43.8184485551286;11.1229416996272;Volta Prata
CBI032_600;43.8213125305389;11.1209510122626;Di Gramignano Magenta
CBI033_600;43.8234907335312;11.1426956846089;Orly
CBI034_600;43.8192666177583;11.1401337089999;Moro Villa Rucellai
CBI035_600;43.8216074397415;11.1406183977193;Verdi Scuole
CBI036_600;43.8206856583987;11.138878744412;Campi B.Zio Vittorio Veneto
CBI037_600;43.8060875860059;11.1185285634339;San Martino Pistoiese
CBI039_600;43.8157573600371;11.1527205061005;Buozzi Focognano
CBI040_600;43.817656516027;11.1453328063557;Buozzi Cetino
CBI043_600;43.8081034670543;11.1233585916024;Carraia Giardini
CBI044_600;43.8085062066482;11.1206483492756;San Martino Carraia
CBI045_600;43.8255938298209;11.1349595031461;Santa Maria
CBI046_600;43.8291257678079;11.1333753953267;La Villa
CBI047_600;43.8282191709509;11.1351557207568;Olmo Giusti
CBI048_600;43.8323292245444;11.1320234952333;Confini
CBI049_600;43.8351743369762;11.1320222190449;Confini Volta
CBI050_600;43.8393750011227;11.1293373458557;Confini Centola
CBI051_600;43.8421862461532;11.1275294702228;Galilei Confini
CBI052_600;43.8440267965913;11.1272806787737;Campi Bisenzio Galilei
CBI053_600;43.8422970388787;11.126656424248;Confini Galilei
CBI055_600;43.8350139485193;11.1319325497863;Confini Togliatti
CBI056_600;43.8318953120126;11.1318758946984;Confini Barberinese
CBI057_600;43.8297408868219;11.13080888726;Barberinese La Villa
CBI058_600;43.8284647469459;11.1297172374283;Barberinese Castronella
CBI059_600;43.8255748764538;11.1284967587153;Fiesoli Pasolini
CBI060_600;43.8241471046309;11.1309502506087;Fiesoli San Martino
CBI061_600;43.8468423826776;11.1452687125553;San Quirico Leonardo Da Vinci
CBI064_600;43.8202446518597;11.1415131845324;Buozzi Puccini
CBI065_600;43.8173600804573;11.1457760405946;Buozzi Palagetta
CBI066_600;43.8157439603014;11.1524760077888;Buozzi Oasi Wwf
CBI072_600;43.8284852070722;11.133445844628;Scuola Garibaldi
CBI113_600;43.8214654872079;11.1364180091508;Santo Stefano Primo Maggio
CBI114_600;43.8230762486758;11.1333237351541;Roma Rocca Strozzi
CBI126_600;43.8217889310872;11.1405425018722;Verdi Vittorio Veneto
CBI127_600;43.8209558473963;11.1379122421389;Piazza Dante
CBI133_600;43.8218062104746;11.143462291263;Vittorio Veneto Risorgimento
CBI154_600;43.8154151261915;11.1401763824668;Bruno Scuole
CBI160_600;43.7941163399643;11.1549308856223;Pistoiese Villari
CBI161_600;43.7958654503485;11.1497841110474;Pistoiese San Donnino
CBI162_600;43.7970952733111;11.1471060298675;Pistoiese San Jacopo
CBI163_600;43.7990333946156;11.1424239030324;Pistoiese Variante
CBI164_600;43.8014162023064;11.1365810543066;Pistoiese Baccellina
CBI165_600;43.8024680112599;11.1340173224848;Pistoiese Crescia
CBI166_600;43.8045333214147;11.1258611217422;Pistoiese Del Santo
CBI167_600;43.805688581755;11.1186822864623;Pistoiese Barberinese
CBI169_600;43.807380616565;11.1155579089484;Indicatore
CBI170_600;43.8437728700333;11.1416350887585;San Quirico Biancospino
CBI173_600;43.8228146818494;11.1328892114187;Xxiv Maggio
CBI174_600;43.8242090890226;11.129799041598;San Lorenzo Tosca Fiesoli
CBI175_600;43.7989686509106;11.1422755303215;Pistoiese Platani
CBI177_600;43.7954177639557;11.1506086162473;Pistoiese Costituzione
CBI182_600;43.8166019329759;11.1273416646258;Mammoli San Martino
CBI183_600;43.8142308077132;11.132101920352;Torricella Convento
CBI184_600;43.8074554029004;11.1263206721796;Torricella Baracca
CBI191_600;43.8101419628615;11.086085492888;Pistoiese Bassa
CBI192_600;43.8114625230733;11.0827931876431;Sant'Angelo A Lecore
CBI193_600;43.8115557607527;11.0784153060342;Pistoiese Crocicchio Dell'Oro
CBI194_600;43.8123871852771;11.0735376603918;Pistoiese Le Mosche
CBI195_600;43.8133393999156;11.0677056137774;Pistoiese Caiano
CBI196_600;43.8139685574448;11.0640216107283;Pistoiese Carcerina
CBI199_600;43.8111715987902;11.082453597446;Bassa
CBI202_600;43.8154990001253;11.128067178943;San Martino Torricella
CBI203_600;43.8177499054534;11.1290315511067;San Martino Manetti
CBI204_600;43.8190796018623;11.1286995622478;Manetti
CBI205_600;43.8216731241978;11.1204415043297;Di Gramignano Palestro
CBI206_600;43.8229390827617;11.1189334510975;Palestro Cinque Giornate
CBI207_600;43.8265623953134;11.1211478518652;Chiella
CBI208_600;43.8270449108247;11.1252207446245;Fiesoli Petrarca
CBI209_600;43.8484292111627;11.1336559151743;Fratelli Cervi Del Pantano
CBI210_600;43.8497760788861;11.1326602697273;Del Pantano Lago Pecci
CBI214_600;43.7953927934141;11.1488256053209;Scuola Verga
CBI294_600;43.8069870257401;11.1120132762701;Fra' Guittone
CBI299_600;43.8059531297845;11.1378910428136;Pt San Piero
CBI300_600;43.8070762351243;11.1393380664821;Delle Rose
CBI301_600;43.8109835345448;11.0858345647153;Berlinguer Bassa
CBI310_600;43.8153890008188;11.1438216909664;Palagetta Bruno
CBI318_600;43.7913661835476;11.149652275257;Di San Donnino Delle Viottole
CBI339_600;43.8344555743409;11.1314586800365;Togliatti Confini
CBI350_600;43.7939336423134;11.1471807741638;Delle Molina Trento
CBI351_600;43.7911704546287;11.1327140234848;Delle Molina Valico
CBI376_600;43.7971940600081;11.1466403316444;Pistoiese 32
CBI405_600;43.8373832007241;11.1539381991104;Allende Einstein
CBI406_600;43.8354687854188;11.1532847165752;Allende Maestri Del Lavoro
CBI484_600;43.845332394399;11.1205380156946;Maiano Confini
CBI485_600;43.8173687796032;11.1253234561601;Mammoli Terracini
CBI509_600;43.7892142696672;11.144866279786;Trento Parco Chico Mendez
CBI514_600;43.7917639939121;11.1466913498251;Trento San Donnino
CBI595_600;43.7857068770646;11.1422552625186;San Donnino Fs
CBI598_600;43.7940523828238;11.14948447937;Trento Fosso Secco
CBI599_600;43.7938759994634;11.1519189841085;Fosso Secco
CBI601_600;43.8046255568697;11.1356773333104;Caracciolo Cerretelli
CBI602_600;43.809907971788;11.1389073106229;Palagetta San Giusto
CBI603_600;43.8140208524642;11.142841757497;Palagetta Prunaia
CBI606_600;43.8257435306209;11.1449914107385;Allende
CBI607_600;43.8350340612049;11.153191215804;Allende Tomerello
CBI627_600;43.844410665128;11.158930765843;Olmi Allende
CBI629_600;43.8243746220241;11.1433214571413;Saliscendi Variante Nord
CBI631_600;43.8169773422126;11.1451816498993;Palagetta Buozzi
CBI632_600;43.8125237741828;11.1412946529575;Palagetta Variante Sud
CBI633_600;43.8097672974293;11.1387988478531;Palagetta Liberto Roti
CBI634_600;43.8062222900599;11.1359536711284;Della Crescia Caracciolo
CBI635_600;43.8030456107291;11.1332205312724;Della Crescia Pistoiese
CBI636_600;43.7946173779365;11.1500811620407;Trento Pistoiese
CBI638_600;43.7936864129125;11.14500454269;Delle Molina Fosso Macinante
CBI657_600;43.85771195667;11.1400982182417;Il Rosi
CBI679_600;43.8063626770294;11.1168024669556;Barberinese Indicatore
CBI680_600;43.8235128741987;11.1256067998473;Barberinese Paradiso
CBI681_600;43.8376993133572;11.132048414511;Confini Della Colonna
CBI688_600;43.8423707610588;11.1491761206229;Officine Galileo
CBI691_600;43.8407733181264;11.133289892977;San Quirico Pantano
CBI705_600;43.7926964482627;11.1478573513863;Trento Delle Molina
CBI712_600;43.7907071499988;11.1305225046576;Delle Molina Dei Bassi
CBI798_600;43.8406462648964;11.1499118488782;Einstein Officine Galileo
CBI799_600;43.8404964341633;11.1499795460566;Einstein Allende
CBI837_600;43.8345446448812;11.131269064453;Campi Bisenzio Togliatti
CBI857_600;43.8197586234009;11.1427050902115;Buozzi Rossini
CBI858_600;43.8201219899249;11.1406119320798;Campi Bisenzio Tintori
CBI859_600;43.8189200282085;11.1370630246958;Don Gnocchi
CBI861_600;43.8528208927256;11.1354053382651;Cellerese Leonardo Da Vinci
CBI862_600;43.8165228413348;11.135441253254;Bruno Croce
CBI863_600;43.815630458772;11.1386251695148;Bruno Buonarroti
CBI864_600;43.815496746327;11.1440773343184;Palagetta Gelsomino
CBI865_600;43.8238832649173;11.1257816115671;Barberinese Magenta
CBI867_600;43.8220984147152;11.1227508770356;Magenta
CBI868_600;43.820622730142;11.1422370531914;Trieste Buozzi
CBI885_600;43.8222609558637;11.1384142797304;Ferrucci Montalvo
CBI887_600;43.8365330347482;11.1296529211571;Campo La Villa
CBI891_600;43.8276069435286;11.1291255295949;Barberinese Fiesoli
CBI892_600;43.812131234394;11.14110189388;Palagetta Padule
CBI912_600;43.8216257813221;11.1282985044371;Paradiso Villa Palagio
CBI922_600;43.8262865300737;11.1426837456597;Variante Nord Saliscendi
CBI923_600;43.8378178710801;11.1317261254101;Confini Capalle
CBI924_600;43.8228275911198;11.1412807276464;Saliscendi Genova
CBI928_600;43.8235501064725;11.1333248733817;Piazza Gramsci
CBI929_600;43.8264916816601;11.1425465163366;Variante Nord Montalvo
CBI930_600;43.8218353300579;11.1440695515963;Vittorio Veneto Marzabotto
CBI938_600;43.8186012549597;11.1439273459325;Buozzi Donizetti
CBI996_600;43.8049669791624;11.1231182140141;Pistoiese Giuncheta
CBI997_600;43.8098911038837;11.1183102789432;Barberinese Carraia
CBI999_600;43.8127255620148;11.1193694307537;Barberinese Variante Sud
FI0003_600;43.7981819000202;11.201608703993;Basili Martucci
FI0004_600;43.7984115143069;11.2018129170259;Basili Pratese
FI0005_600;43.7828964703911;11.2721489480788;Pratellino Ponte Al Pino
FI0006_600;43.7920076046583;11.270311371801;Faentina Palancola
FI0007_600;43.7906643879448;11.2685841761768;Faentina Ponte Alle Riffe
FI0008_600;43.7889683679144;11.2677199188993;San Marco Vecchio Fs
FI0009_600;43.7935087459127;11.2740550733586;Boccaccio Cino Da Pistoia
FI0010_600;43.7903084714687;11.2731273601395;Boccaccio Compagni
FI0011_600;43.7885944805386;11.2708050814917;Boccaccio Calandrino
FI0012_600;43.7873122756398;11.2689528983188;Borghini
FI0013_600;43.7862058754906;11.2675408626474;Don Minzoni Pascoli
FI0014_600;43.7727739055173;11.2524558857485;Pecori Vecchietti
FI0016_600;43.796374175863;11.2732595169355;Faentina Il Cionfo
FI0017_600;43.7789967954703;11.2560584942252;Xxvii Aprile Santa Reparata
FI0018_600;43.7761718130553;11.256840356841;Cavour Palazzo Medici
FI0019_600;43.7979286898001;11.2743191144997;Faentina Fusinato
FI0020_600;43.7814623789596;11.2601907144834;Sant'Anna
FI0021_600;43.7759889483048;11.2451020767537;Scala Orti Oricellari
FI0022_600;43.7838602780584;11.258765837887;Landino
FI0024_600;43.7972187581314;11.163453145756;Malaparte San Martino
FI0027_600;43.7744795366244;11.22121991603;Piazza Batoni
FI0031_600;43.7749049725405;11.2111244427055;Canova Sernesi
FI0032_600;43.7737886223057;11.2088581783625;Pampaloni Corcos
FI0033_600;43.7731181466241;11.2071477748127;Bezzuoli Le Torri
FI0034_600;43.7738303448136;11.204302194082;Lunga Le Torri
FI0035_600;43.7746366075859;11.199841586911;Martini Livorno
FI0036_600;43.7749567635308;11.1972408696145;Martini Bassi
FI0037_600;43.7759163831615;11.1941571754047;Martini Signorelli
FI0038_600;43.7773613225666;11.1948853887028;Signorelli Bramante
FI0039_600;43.7763335599994;11.2082523920525;Canova Maccari
FI0040_600;43.7772483132872;11.2054094618785;Canova Fedi
FI0041_600;43.7782101875687;11.2022202431881;Canova Giuncoli
FI0042_600;43.7789926719982;11.1987571786438;Canova Chiusi
FI0043_600;43.7798738653128;11.1949272027537;Bibliotecanova
FI0045_600;43.7806090524974;11.1924198172796;Canova Santa Maria A Cintoia
FI0046_600;43.7815008141471;11.1898163745015;Canova Martini
FI0047_600;43.7791621114399;11.1880565252198;Martini S. Bartolo A Cintoia
FI0048_600;43.7771725345244;11.1913342879481;Martini Mantegna
FI0049_600;43.7742948800519;11.190976958912;Cavallaccio Casella
FI0050_600;43.7760930331971;11.249925283435;Stazione Nazionale
FI0053_600;43.7770297052007;11.1945535961192;Signorelli Martini
FI0054_600;43.7702523595728;11.2536760899352;Porta Rossa
FI0055_600;43.7778369387936;11.1902573011727;Martini Madonna Di Pagano
FI0056_600;43.7803593263584;11.1878345873004;Martini Canova
FI0057_600;43.7811778522762;11.1904600938952;Canova Querci
FI0058_600;43.7804096247786;11.1927247453298;Canova Nigetti
FI0059_600;43.779694738828;11.1951986021262;Canova Signorelli
FI0060_600;43.7787389925527;11.1993070604466;Canova Bassi
FI0061_600;43.7782566656611;11.2014437607741;Canova Interno 25
FI0062_600;43.7772957321651;11.2049259091984;Canova Torri
FI0063_600;43.7762792789906;11.2080329427431;Canova Villa Vogel
FI0065_600;43.7762913332328;11.1928935229945;Cavallaccio Martini
FI0066_600;43.7754888909882;11.1946168163125;Martini Il Cavallaccio
FI0067_600;43.7747705507398;11.1975602163554;Martini Scuole
FI0068_600;43.7744867039982;11.2006126761528;Martini Lunga
FI0069_600;43.7742111446731;11.2036980277769;Lunga Tommasi
FI0070_600;43.7730438872494;11.2065641694778;Bezzuoli Pampaloni
FI0072_600;43.7750394925381;11.2106867431333;Canova Muricce
FI0077_600;43.7601437065022;11.2989270338088;Gran Bretagna Portogallo
FI0078_600;43.7631914540872;11.2820848308864;Bracciolini Ravenna
FI0079_600;43.7763250390932;11.237492078077;Vittorio Veneto
FI0080_600;43.7753804651418;11.2904931387746;D'Annunzio Rondinella
FI0081_600;43.7738314805162;11.2952223563442;Rondinella Martini
FI0082_600;43.7741691806898;11.2508690744534;Stazione Via Panzani
FI0083_600;43.7754932853526;11.2945171178504;Novelli
FI0085_600;43.7810586249217;11.2619530163502;Venezia
FI0087_600;43.7860451054019;11.2674757504036;Don Minzoni Giordano
FI0088_600;43.7870097228976;11.2701782791216;Firenzuola
FI0089_600;43.788037891697;11.2723080044172;Madonna Della Querce
FI0090_600;43.7892443609169;11.271243875449;Caracciolo Sercambi
FI0091_600;43.7910147566713;11.273147306509;Caracciolo Rimbotti
FI0092_600;43.7937711034019;11.2728609321688;Cuoco
FI0093_600;43.7961682720488;11.273200433983;Faentina Confalonieri
FI0094_600;43.7976712103883;11.2742322142001;Faentina Pietrafitta
FI0095_600;43.79949104042;11.2758887189502;Faentina Dall'Ongaro
FI0096_600;43.7907073950905;11.2748018468144;Maffei Fra' Guittone
FI0097_600;43.792144111082;11.2758940682771;Maffei Guinizzelli
FI0098_600;43.7717628030936;11.2193121276118;Pollaiolo Fra? Diamante
FI0099_600;43.7721605208903;11.2253040890359;Monticelli
FI0105_600;43.8019740658321;11.2340250354734;Rifredi Fs Via Pancaldo
FI0106_600;43.7587113458675;11.202543415962;Ospedale Torre Galli
FI0107_600;43.7619846897808;11.2069463169137;Di Scandicci Di Soffiano
FI0108_600;43.7650044569754;11.2104862496161;Di Scandicci Filarete
FI0109_600;43.7658108236421;11.2139448675128;Filarete Scuole
FI0110_600;43.7643521941719;11.2176615142349;Filarete Soffiano
FI0111_600;43.7667135866985;11.2207786425592;Di Soffiano
FI0112_600;43.7680185827708;11.2210366034961;Starnina Soffiano
FI0113_600;43.7707323674911;11.2213079141314;Masolino Pisana
FI0114_600;43.7715302893425;11.2237960740466;Pisana Monticelli
FI0115_600;43.7723747561544;11.2301267642606;Pisana Villa Strozzi
FI0116_600;43.7844510830926;11.255840803266;Milton
FI0117_600;43.7861121343603;11.2281505579423;Piazza Puccini
FI0118_600;43.7855541762792;11.2311357673167;Toselli Veracini
FI0119_600;43.7852961573499;11.2295944615553;Ponte Alle Mosse Puccini
FI0120_600;43.7852112726695;11.2320970209085;Doni
FI0121_600;43.7869218671876;11.2337126459719;Dallapiccola
FI0123_600;43.7908944791548;11.2345271604147;Mariti Da Empoli
FI0124_600;43.7937080337258;11.2370588780034;Mariti Dalla Valle
FI0125_600;43.7796381396315;11.238077948684;Ponte Alle Mosse Leopolda
FI0126_600;43.7794388848566;11.2404346359635;Porte Nuove Belfiore
FI0127_600;43.7835071377961;11.2349866086896;Toselli Bellini
FI0128_600;43.8040937917543;11.2443895965185;Caccini Careggi
FI0129_600;43.8053844928156;11.2410160945425;Panche Delle Gore
FI0130_600;43.7937330286865;11.2720593484708;Faentina Cuoco
FI0131_600;43.7791814066432;11.2558057285753;Xxvii Aprile San Zanobi
FI0132_600;43.8080824352531;11.2338192218282;Giuliani Spinucci
FI0133_600;43.8104755233351;11.2327615255551;Sestese Sodo
FI0134_600;43.8144374714379;11.2279543268726;Sestese Crocetta
FI0135_600;43.8161052686853;11.225708362228;Sestese Accademia Crusca
FI0136_600;43.8186109328168;11.222332243315;Sestese Di Bellagio
FI0137_600;43.8204533016584;11.2206519510141;Sestese Termine
FI0138_600;43.7824026111629;11.2348382574186;Ponte Alle Mosse Marcello
FI0149_600;43.7949798687588;11.1965732984529;Pistoiese Cavalla
FI0150_600;43.8101732197379;11.2449701317363;Parcheggio Via Della Quiete
FI0151_600;43.8080537297026;11.2433242329962;Aselli
FI0161_600;43.8181942284793;11.2226944771806;Sestese Castello Fs
FI0162_600;43.8166229494988;11.2248958188422;Sestese Bechi
FI0163_600;43.8143798827746;11.2278496692435;Sestese Undici Agosto
FI0164_600;43.8105717246158;11.2322571040572;Sestese Giuliani
FI0165_600;43.7688820549342;11.1697797909592;Minervini Bassa
FI0166_600;43.806756233483;11.2362577441022;Pellas
FI0167_600;43.8049673333732;11.2374947515258;Locchi
FI0168_600;43.8047463426305;11.2418779819441;Caccini Panche
FI0169_600;43.802977187101;11.2455338045668;Morgagni Careggi
FI0170_600;43.7999779483974;11.244064771378;Morgagni Casa Studente
FI0171_600;43.7691035028836;11.1694973822531;Minervini Sollicciano
FI0172_600;43.771199921932;11.1619723727276;Pontignale Pace Mondiale
FI0173_600;43.7931201971381;11.236272541009;Mariti Ponte Di Mezzo
FI0174_600;43.7907674505193;11.2341169372109;Mariti Buonsignori
FI0176_600;43.7951348185389;11.2069857223087;Baracca Gori
FI0177_600;43.7739528863462;11.2091447901143;Pampaloni Muricce
FI0179_600;43.7741623300544;11.2326425649886;Vanni Gaddi
FI0181_600;43.7748079680501;11.2300106581075;Vanni Rosso Fiorentino
FI0182_600;43.805648370633;11.2319343069588;Rigutini
FI0183_600;43.7713126629254;11.2356380234116;Pisana Cinema Universale
FI0185_600;43.7755430551184;11.2631366629392;Colonna Pergola
FI0186_600;43.7704603127979;11.2214081704465;Masolino Olivuzzo
FI0187_600;43.7684887048035;11.2188518288668;Starnina Di Scandicci
FI0188_600;43.7670889295069;11.2156045219121;Di Scandicci Bonaiuto
FI0189_600;43.7659233813252;11.2118525363804;Di Scandicci Arcipressi
FI0190_600;43.7646822521593;11.2099215402466;Di Scandicci Ronco Corto
FI0191_600;43.7624397061402;11.2071618177294;Di Scandicci Pesellino
FI0192_600;43.7593695861423;11.2034262621786;Di Scandicci Torre Galli
FI0200_600;43.7918866575894;11.2175706058388;Baracca Tagliaferri
FI0201_600;43.7847849662349;11.271536937528;Mille Deposito At
FI0202_600;43.7838031045197;11.2733716020724;Mille Marconi
FI0203_600;43.7817970165731;11.2771292385775;Mille Cairoli
FI0204_600;43.7808154710703;11.2789435403327;Mille Stadio
FI0205_600;43.7941596529608;11.2192130411195;Torre Degli Agli Novoli
FI0206_600;43.7813747923102;11.2868850111737;Fanti Cerreti
FI0208_600;43.7773720998241;11.2899510101605;Falcucci Arcolaio
FI0209_600;43.7763643742777;11.2935082339253;D'Annunzio Salvi Cristiani
FI0210_600;43.7761593286024;11.2972156780367;Salvi Cristiani
FI0212_600;43.7755527099745;11.2908833564323;D'Annunzio Presidio Asl
FI0213_600;43.7748373621232;11.2877170590828;D'Annunzio Lungo L'Affrico
FI0214_600;43.7730791511003;11.2846943873712;De Amicis Torretta
FI0215_600;43.7693940206029;11.2803235610054;Piagentina Alberti
FI0216_600;43.7679029911252;11.2785663524769;Piagentina Beato Angelico
FI0217_600;43.7667130664328;11.2784140055504;Sella Campofiore
FI0218_600;43.7663363042826;11.2818270161197;De Sanctis Da Verrazzano
FI0219_600;43.7628694995796;11.2822014743732;Bracciolini Gavinana
FI0220_600;43.7618280879756;11.2858793700379;Gualfredotto
FI0221_600;43.759544079758;11.28843365143;Datini Traversari
FI0222_600;43.7582396964138;11.2897254872482;Datini Erbosa
FI0223_600;43.759603054839;11.2920936384485;Gran Bretagna D'Angio'
FI0224_600;43.7598104977406;11.2962450244832;Gran Bretagna Lame
FI0225_600;43.7604698023997;11.3006181097873;Austria
FI0226_600;43.7615633867577;11.306885411218;Nave A Rovezzano
FI0227_600;43.7602168062555;11.2993211397014;Gran Bretagna Kiev
FI0228_600;43.7598151459627;11.2956688069705;Gran Bretagna Kyoto
FI0229_600;43.7596840787201;11.2915599660525;Gran Bretagna Erbosa
FI0230_600;43.7583296004713;11.2897320229025;Datini Federico D'Antiochia
FI0231_600;43.7602629642202;11.2878290754753;Datini Ser Lapo Mazzei
FI0232_600;43.7616502892515;11.2863565977449;Datini Gualfredotto
FI0233_600;43.7624735342118;11.2833184483982;Giovanni Dalle Bande Nere
FI0234_600;43.7667657951668;11.2820872292939;De Sanctis Sella
FI0235_600;43.7691574180301;11.2822527514357;De Sanctis Alberti
FI0236_600;43.772857861901;11.2849546497802;Lungo L'Affrico
FI0237_600;43.7749534513471;11.2884390570392;D'Annunzio Ramazzini
FI0238_600;43.7752014659606;11.2921230527341;Rondinella Frullani
FI0239_600;43.7866684680535;11.2745833487445;Piazzuola
FI0241_600;43.7774498955682;11.2901124117729;Falcucci Lungo L'Affrico
