stop_id,stop_name,stop_lat,stop_lon,stop_code
"5@6013_600","T1 Porta Al Prato - Leopolda","43.7778086900976","11.2397241014307","5@6013"
"9@F0002_600","Stazione Leopolda","43.7777265748945","11.2384886192965","9@F0002"
"BRP009_600","Chiantigiana Longo","43.7376835576055","11.2974043016504","BRP009"
"BRP011_600","San Martino A Strada","43.7134614229807","11.2908887187895","BRP011"
"BRP012_600","Gobetti Volta Granacci","43.7553032657394","11.3179155664687","BRP012"
"BRP013_600","Roma Otto Marzo","43.7483297200317","11.3289496718473","BRP013"
"BRP015_600","Roma Martellina","43.7481935853103","11.3350821026465","BRP015"
"BRP016_600","Roma Parcheggio","43.7479451597493","11.3352605259258","BRP016"
"BRP017_600","Roseto Di Rosano","43.7754762359278","11.3631443225831","BRP017"
"BRP037_600","Cimitero San Piero A Ema","43.7375251499936","11.2974463605416","BRP037"
"BRP042_600","Roma Volta Gobetti","43.7534403783561","11.3134326233869","BRP042"
"BRP058_600","Roma Robinson","43.7524672261134","11.3187997102761","BRP058"
"BRP059_600","Roma Procacci","43.7522188033001","11.3194474759633","BRP059"
"BRP062_600","Ospedale Annunziata","43.7323101811027","11.305586201613","BRP062"
"BRP063_600","Osma Parcheggio","43.7324952139863","11.3053403144784","BRP063"
"BRP067_600","San Martino 1","43.7150688511835","11.2914622718203","BRP067"
"BRP068_600","San Martino","43.7121210857279","11.2903307121816","BRP068"
"BRP069_600","San Martino","43.7122213529543","11.2904490996084","BRP069"
"BRP071_600","Ugolino","43.7032417837945","11.2932425623869","BRP071"
"BRP094_600","Chiantigiana Dell'Antella","43.7346778859569","11.2966576115833","BRP094"
"BRP095_600","Chiantigiana Belmonte","43.7338348866706","11.296971003502","BRP095"
"BRP098_600","Di Antella Belmonte","43.7333504092455","11.2984212637081","BRP098"
"BRP102_600","San Martino","43.7149348067209","11.2915359738172","BRP102"
"BRP106_600","Di Antella Ponte A Niccheri","43.7334330732964","11.2987876197003","BRP106"
"BRP109_600","Roma Mazzini","43.7288990008441","11.3268799174507","BRP109"
"BRP110_600","Peruzzi Della Torre","43.728647208196","11.3422218972919","BRP110"
"BRP117_600","Roma Rodolico","43.7540975570679","11.3085407407692","BRP117"
"BRP137_600","Costa Al Rosso","43.7178968704598","11.2920950695933","BRP137"
"BRP184_600","Chiantigiana Alighieri","43.7281084356297","11.2950626616927","BRP184"
"BRP185_600","Chiantigiana Borgo Sani","43.7262222926156","11.2929108269881","BRP185"
"BRP186_600","Grassina Umberto I","43.7242185682555","11.2931747172124","BRP186"
"BRP187_600","Chiantigiana Bartolini","43.7265224828108","11.2932062862012","BRP187"
"BRP188_600","Chiantigiana Campigliano","43.728824699387","11.2955817937832","BRP188"
"BRP190_600","Chiantigiana Ponte A Niccheri","43.73566367045","11.2966627109586","BRP190"
"BRP201_600","Gobetti Volta Perosi","43.754798434677","11.3190559060186","BRP201"
"BRP205_600","Di Antella 05","43.7314016200497","11.3106715524122","BRP205"
"BRP206_600","Di Antella Torricella","43.7300945627542","11.3154170150862","BRP206"
"BRP207_600","Brig. Partigiane Torricella","43.7292726085391","11.3170229527225","BRP207"
"BRP208_600","Brig. Partigiane Giardini","43.7281462511809","11.3193646256602","BRP208"
"BRP209_600","Antella","43.7264785650535","11.3216808972536","BRP209"
"BRP210_600","Di Antella Peruzzi","43.7280870949894","11.3201673159755","BRP210"
"BRP211_600","Di Antella Pertini","43.7295347228807","11.3173037692393","BRP211"
"BRP212_600","Di Antella Romanelli","43.7303037729413","11.3150898416369","BRP212"
"BRP213_600","Di Antella 06","43.7318599525084","11.3093776882568","BRP213"
"BRP216_600","Croce A Varliano","43.7459707545148","11.3380443036644","BRP216"
"BRP217_600","Roma I Ponti","43.7527402569768","11.3173244147545","BRP217"
"BRP218_600","Roma Borrani","43.7483065907528","11.330534549508","BRP218"
"BRP219_600","Roma Dallapiccola","43.7486087250819","11.3278066795975","BRP219"
"BRP220_600","Roma Mattei","43.7496785870344","11.3245992018035","BRP220"
"BRP221_600","Roma Fratelli Orsi","43.7520133623498","11.3211980013273","BRP221"
"BRP224_600","Roma Olmi","43.7538990181123","11.3103450301503","BRP224"
"BRP234_600","Roma Pieve A Ripoli","43.7538394801959","11.3099281852276","BRP234"
"BRP235_600","Roma Bocci","43.7534692406503","11.3128965278837","BRP235"
"BRP238_600","Roma Agnoletti","43.7507564916423","11.3225835865092","BRP238"
"BRP239_600","Roma Due Giugno","43.7492493305206","11.3254594396997","BRP239"
"BRP241_600","Roma Giusiani","43.7481729441434","11.3329481841622","BRP241"
"BRP407_600","Bagno A Ripoli Robinson","43.7530677756583","11.3176010034401","BRP407"
"BRP409_600","Ritortoli Casanuova","43.746542764991","11.3128113106797","BRP409"
"BRP410_600","Ritortoli Baroncelli","43.7466543732569","11.3128575262274","BRP410"
"BRP446_600","Cimitero San Martino","43.7158247996875","11.2957446648074","BRP446"
"BRP502_600","Villamagna","43.7616271762256","11.3825154675467","BRP502"
"BRP503_600","Fagiolari 02","43.7615169367537","11.3869335473853","BRP503"
"BRP504_600","San Romolo 22","43.7655575192978","11.3891814394904","BRP504"
"BRP505_600","Turrita 02","43.7675007428182","11.3875319097332","BRP505"
"BRP506_600","San Romolo 18","43.7707189835531","11.3858320393005","BRP506"
"BRP507_600","Case Di San Romolo 02","43.7732678780553","11.3838475673893","BRP507"
"BRP508_600","San Romolo 14","43.7744511914627","11.3815042790328","BRP508"
"BRP509_600","Torre Rossa 02","43.7736828775066","11.3781919777338","BRP509"
"BRP510_600","Monte Acuto 02","43.7743753565497","11.375800341114","BRP510"
"BRP511_600","San Romolo 08","43.7766465788656","11.3775152315738","BRP511"
"BRP512_600","San Romolo 06","43.7780983635196","11.3723808132352","BRP512"
"BRP513_600","San Romolo 04","43.7789880254439","11.3697481776978","BRP513"
"BRP514_600","San Romolo 02","43.7810292298378","11.3659183279836","BRP514"
"BRP515_600","Di Docciola Di Rosano","43.780104685371","11.3650695301709","BRP515"
"BRP516_600","Di Rosano Del Roseto","43.7746489520649","11.3626895128454","BRP516"
"BRP517_600","Di Rosano Arno","43.7717727477475","11.359808352892","BRP517"
"BRP518_600","Di Rosano Di Rignalla","43.7716653412114","11.3556989910657","BRP518"
"BRP519_600","Di Rosano Vivaio","43.7710153983491","11.3529284968473","BRP519"
"BRP520_600","Di Rosano Pescaia","43.767605701176","11.3448310867214","BRP520"
"BRP521_600","Di Rosano Il Girone","43.7648332625677","11.3403742293966","BRP521"
"BRP522_600","Di Rosano Della Massa","43.7627950484894","11.3353561598395","BRP522"
"BRP532_600","Di Rimaggio Della Croce","43.7602438080349","11.3314735075171","BRP532"
"BRP533_600","Di Rimaggio Vicchio E Paterno","43.7584004042033","11.3298690391694","BRP533"
"BRP534_600","Di Rosano Viola Park","43.7579012743551","11.3275420319096","BRP534"
"BRP535_600","Arti Don Perosi","43.7548078438468","11.323322974679","BRP535"
"BRP538_600","Roma Pian D'Albero","43.7461157800382","11.3379892984001","BRP538"
"BRP539_600","Roma Circolo La Fonte","43.7430739850352","11.3414381629495","BRP539"
"BRP540_600","Roma Dei Colli","43.7359419608537","11.3406199441313","BRP540"
"BRP541_600","Roma Martinelli","43.7312592348899","11.3441763545698","BRP541"
"BRP542_600","Roma Peruzzi","43.7294877104581","11.3463108558683","BRP542"
"BRP543_600","Peruzzi A1","43.7282942229681","11.3381647783104","BRP543"
"BRP544_600","Peruzzi Autogrill","43.7286368225158","11.331280429239","BRP544"
"BRP545_600","Peruzzi Romanelli","43.7273597552097","11.3237624039927","BRP545"
"BRP553_600","Di Tizzano Bikila","43.7231401623128","11.2952978810491","BRP553"
"BRP555_600","Di Tizzano Chiantigiana","43.723117899367","11.2969565677877","BRP555"
"BRP557_600","Pulicciano Di Picille","43.7225361058681","11.3209567469979","BRP557"
"BRP558_600","Croce A Balatro","43.7201999017983","11.3195771855511","BRP558"
"BRP559_600","Pulicciano Michelet","43.7223071761074","11.3209477181959","BRP559"
"BRP560_600","Brigate Partigiane Togliatti","43.7262235116863","11.3209400875509","BRP560"
"BRP561_600","Peruzzi Bixio","43.7272564977133","11.3236572977486","BRP561"
"BRP562_600","Peruzzi Bardelli","43.7285708285665","11.3311170832627","BRP562"
"BRP563_600","Peruzzi Borro San Giorgio","43.7284270598417","11.3375801359371","BRP563"
"BRP564_600","Roma Lazzeri","43.7297702701215","11.346095509894","BRP564"
"BRP565_600","Roma San Quirico","43.7315982401846","11.3438900373967","BRP565"
"BRP566_600","Roma Valcelli","43.7361938900658","11.340628210179","BRP566"
"BRP567_600","Roma Del Bigallo","43.7430984941521","11.3415602023145","BRP567"
"BRP568_600","Roma Della Croce","43.7461931289061","11.3379242021167","BRP568"
"BRP570_600","Arti Granacci","43.7541574550113","11.321375318463","BRP570"
"BRP571_600","Arti Del Padule","43.7547449997648","11.3233960011515","BRP571"
"BRP572_600","Di Rosano Del Padule","43.7579911420775","11.3276960586195","BRP572"
"BRP575_600","Di Rosano Candeli","43.7623609482297","11.33476800083","BRP575"
"BRP576_600","Di Rosano Della Cartiera","43.7644141475969","11.3395889191142","BRP576"
"BRP577_600","Di Rosano Bosco Incontro","43.7674360638926","11.3447974468963","BRP577"
"BRP578_600","Di Rosano Casa Di Riposo","43.7709546528367","11.3531251437797","BRP578"
"BRP579_600","Di Rosano Santa Maria","43.7716220099972","11.3558180578059","BRP579"
"BRP580_600","Di Rosano Vallina","43.771739113273","11.3599110870504","BRP580"
"BRP581_600","Di Rosano Di Docciola","43.7745542532512","11.3626668958427","BRP581"
"BRP582_600","Di Docciola Di San Romolo","43.780179320612","11.365161012709","BRP582"
"BRP583_600","San Romolo 01","43.7809852709128","11.3658063689215","BRP583"
"BRP584_600","San Romolo 03","43.7788923149477","11.3697947963469","BRP584"
"BRP585_600","San Romolo 05","43.7780705547443","11.3726360008137","BRP585"
"BRP586_600","San Romolo 07","43.7766582862392","11.3772732688298","BRP586"
"BRP587_600","Monte Acuto 01","43.7744778596924","11.3758999646042","BRP587"
"BRP588_600","Torre Rossa 01","43.7736488066318","11.3783148783047","BRP588"
"BRP589_600","San Romolo 13","43.7743891576412","11.3814567741397","BRP589"
"BRP590_600","Case San Romolo 01","43.7732704688029","11.3837234196624","BRP590"
"BRP591_600","San Romolo 17","43.770530748401","11.385791938155","BRP591"
"BRP592_600","Turrita 01","43.7674380628243","11.3875154383644","BRP592"
"BRP593_600","San Romolo 21","43.7655598558659","11.3890697213234","BRP593"
"BRP594_600","Fagiolari 01","43.7615964417824","11.3870065874602","BRP594"
"BRP692_600","Roseto Di Docciola","43.7776236280058","11.3641349169029","BRP692"
"BRP703_600","Peruzzi San Giorgio","43.7287044197905","11.3420724309993","BRP703"
"BRP707_600","Roma Cattaneo","43.7288367649296","11.3265892099556","BRP707"
"BRP869_600","Di Tizzano Di Lappeggi","43.707316972792","11.3044382312449","BRP869"
"BRP872_600","Di Tizzano Di Pulicciano","43.7065115152671","11.3059820394513","BRP872"
"BRP944_600","Grassina Chiantigiana","43.7239431043752","11.2931994003122","BRP944"
"BRP948_600","Di Tizzano Pescaia","43.715349008374","11.2992702476297","BRP948"
"BRP949_600","Di Tizzano Ricceri","43.7124937572381","11.3002652455282","BRP949"
"BRP950_600","Di Tizzano Zona Artigianale","43.7086945731456","11.3017558017867","BRP950"
"BRP951_600","Di Tizzano Castel Ruggero","43.7006871802423","11.3093703229483","BRP951"
"BRP952_600","Di Tizzano Poggio Casciano","43.6954652604064","11.3235456271729","BRP952"
"BRP953_600","Di Tizzano Tabernacolo","43.6916296858418","11.3296624863627","BRP953"
"BRP954_600","Di Tizzano Circolo Quarate","43.6887899542158","11.3344791408263","BRP954"
"BRP955_600","Di Tizzano Di Lizzano","43.6854125155423","11.3341140332972","BRP955"
"BRP967_600","Di Tizzano Cuculia","43.6855182618163","11.3346538669569","BRP967"
"BRP968_600","Di Tizzano Di Quarate","43.6889190077609","11.3343321553094","BRP968"
"BRP970_600","Di Tizzano Torre Dell'Olivo","43.691225954738","11.330263409438","BRP970"
"BRP971_600","Di Tizzano Montemasso","43.6954495398423","11.3235881410752","BRP971"
"BRP972_600","Di Tizzano Di Mondeggi","43.7008174217058","11.3090694157158","BRP972"
"BRP973_600","Di Tizzano Del Boscaccio","43.7128846560552","11.3001239298963","BRP973"
"BRP974_600","Di Tizzano Spinello Aretino","43.7155732696773","11.2991771630681","BRP974"
"BRP975_600","Di Vittorio Grandi","43.7199205721358","11.2958181394402","BRP975"
"BRP976_600","Di Vittorio Buozzi","43.7203244333633","11.2947310689297","BRP976"
"BRP977_600","Chianesi Buozzi","43.721103680403","11.294225024737","BRP977"
"BRP978_600","Chianesi Costa Al Rosso","43.7201125188059","11.2937029105832","BRP978"
"BRP979_600","Chianesi Chiantigiana","43.7188635874138","11.2934990139188","BRP979"
"BRP983_600","Slargo Lippi","43.7178257915329","11.2927207983886","BRP983"
"BRP984_600","Chianesi Lippi","43.7190777710131","11.2936385889192","BRP984"
"BRP985_600","Chianesi Barducci","43.7202821886629","11.2937142281971","BRP985"
"BRP986_600","Buozzi Barducci","43.7208421335156","11.2945071464923","BRP986"
"BRP987_600","Pian Di Grassina Tegolaia","43.722899243017","11.2916015206093","BRP987"
"BRP988_600","Pian Di Grassina Fonti","43.7217172368493","11.2881347164022","BRP988"
"BRP989_600","Pian Di Grassina Lorenzoni","43.7206383167444","11.2880594952908","BRP989"
"BRP990_600","Pian Di Grassina","43.7200479040869","11.2847193512545","BRP990"
"BRP991_600","Pian Di Grassina Fornaci","43.7208450752082","11.2885251431717","BRP991"
"BRP992_600","Pian Di Grassina Galganotti","43.7223156888475","11.2897217383214","BRP992"
"BRP993_600","Ponte Del Lepri","43.7230623718314","11.2919972533536","BRP993"
"CAL006_600","Alighieri Il Neto","43.8459455756497","11.1802714126735","CAL006"
"CAL008_600","Giusti Tessitori","43.8590479900353","11.1749474854093","CAL008"
"CAL009_600","Giusti Carpugnane","43.8607716237935","11.1715106088892","CAL009"
"CAL026_600","Cimitero Settimello","43.8476106038017","11.1777071235242","CAL026"
"CAL027_600","Pratignone Allende","43.8452130440631","11.1591121080145","CAL027"
"CAL038_600","Alighieri Angiolieri","43.8458393299658","11.1801773495224","CAL038"
"CAL039_600","Alighieri Della Chiesa","43.849428185509","11.1796534260347","CAL039"
"CAL040_600","Giusti Cantine","43.8560764630344","11.178984286813","CAL040"
"CAL041_600","Giusti Petrarca","43.8590221820581","11.1753571648063","CAL041"
"CAL042_600","Giusti Leopardi","43.8600435505967","11.1730192248332","CAL042"
"CAL044_600","Di Capalle Del Lavoro","43.8549021168235","11.1499684874679","CAL044"
"CAL046_600","Municipio Calenzano","43.8654030496924","11.1681507216553","CAL046"
"CAL055_600","Giusti Cavalcanti","43.8562142367365","11.1788415527744","CAL055"
"CAL067_600","Vittorio Emanuele Sottopasso A1","43.8489971384696","11.171795301239","CAL067"
"CAL068_600","Di Prato Centro Commerciale","43.8528585424631","11.1635482381512","CAL068"
"CAL071_600","Vittorio Emanuele Caponnetto","43.8504055217134","11.1685121946292","CAL071"
"CAL072_600","Vittorio Emanuele Baldanzese","43.848694720845","11.1722447577736","CAL072"
"CAL073_600","Vittorio Emanuele San Morese","43.847244580888","11.1751808166319","CAL073"
"CAL082_600","Vittorio Emanuele Casello A1","43.8507525637431","11.1680162384645","CAL082"
"CAL083_600","Di Prato La Fogliaia","43.8544241733793","11.1571723448672","CAL083"
"CAL085_600","Di Prato Larga","43.8536726266823","11.159065953873","CAL085"
"CAL086_600","Vittorio Emanuele Pratignone","43.8520008781318","11.1641470697753","CAL086"
"CAL092_600","Di Capalle Di Prato","43.8551174024856","11.1502499533311","CAL092"
"CAL093_600","Puccini Risorgimento","43.857347790524","11.1573042304531","CAL093"
"CAL094_600","Calenzano Parco Della Resistenza","43.8635547852642","11.1668626447276","CAL094"
"CAL095_600","Di Legri Del Saletto","43.9110399519617","11.2188428675767","CAL095"
"CAL125_600","Cimitero Calenzano","43.8615818458244","11.1616986491337","CAL125"
"CAL161_600","Puccini Di Prato","43.8557621788611","11.1556886425443","CAL161"
"CAL162_600","Puccini Larga","43.8595791272881","11.1592900671548","CAL162"
"CAL163_600","Puccini Del Pino","43.8614096921223","11.1617561988131","CAL163"
"CAL164_600","Puccini Del Lago","43.8622541495118","11.16423190255","CAL164"
"CAL205_600","Caponnetto Pratignone Fs","43.8487237896712","11.1624749744098","CAL205"
"CAL213_600","Pertini Biblioteca","43.8613847712229","11.1663982655682","CAL213"
"CAL216_600","Pertini Don Milani","43.8614134190806","11.1667866063853","CAL216"
"CAL221_600","Calenzano Fs","43.8563143999473","11.1450065148557","CAL221"
"CAL241_600","Olmi Gelsi","43.8389451245828","11.1708318742714","CAL241"
"CAL242_600","Olmi Pertini","43.8390026105686","11.1704125950093","CAL242"
"CAL290_600","Giusti Betti","43.8637817165341","11.1691372248703","CAL290"
"CAL465_600","Alighieri Arrigo Da Settimello","43.8528985544606","11.1794408397436","CAL465"
"CAL612_600","Alighieri Goldoni","43.8532089645827","11.1792157561267","CAL612"
"CAL684_600","Baldanzese Dei Gelsi","43.8411540070561","11.1666406733768","CAL684"
"CAL685_600","Baldanzese Degli Olmi","43.8438534295146","11.169097313677","CAL685"
"CAL686_600","Manetti & Roberts","43.8446749604878","11.1696915590716","CAL686"
"CAL687_600","Baldanzese Del Pratignone","43.8411701258422","11.1665028702527","CAL687"
"CAL795_600","Pratignone Fs","43.8486814235639","11.1620971082729","CAL795"
"CAL796_600","Pratignone Zona Industriale","43.8469253095337","11.1606932501204","CAL796"
"CAL800_600","Pratignone Olmi","43.8449213665318","11.1590627078772","CAL800"
"CAL801_600","Pratignone Delle Calandre","43.8473433032897","11.1612043498243","CAL801"
"CAL835_600","Pertini Tigli","43.8590576140603","11.1637037525921","CAL835"
"CAL836_600","Calenzano Universita'","43.8580299670892","11.161924894287","CAL836"
"CAL838_600","Pertini Universita'","43.8589746226397","11.1637713545633","CAL838"
"CAL945_600","Pratese Parco Del Neto","43.8433977176726","11.1830941336924","CAL945"
"CAL947_600","Della Chiusa Delle Bartoline","43.8721462378219","11.1703025871424","CAL947"
"CAL948_600","Della Chiusa Valigarri","43.8782698277092","11.176622472929","CAL948"
"CAL949_600","Della Chiusa Di Legri","43.8826209167751","11.1805059240532","CAL949"
"CAL950_600","Bellini La Ginoriana","43.8858675483867","11.1814008839745","CAL950"
"CAL951_600","Bellini A1","43.8898287007495","11.182571709301","CAL951"
"CAL952_600","Di Carraia Scuole","43.8936650567947","11.1832543487264","CAL952"
"CAL953_600","Grandi Santi","43.8959136091902","11.183373891418","CAL953"
"CAL954_600","Santi Buozzi","43.8971673403999","11.1837263275153","CAL954"
"CAL955_600","Bellini Santi","43.8977073712446","11.1867973971331","CAL955"
"CAL956_600","Vittorio Emanuele Bovio","43.8470865978741","11.1756758024637","CAL956"
"CAL960_600","Bellini Toscanini","43.8939610813335","11.1844884056508","CAL960"
"CAL961_600","Bellini","43.8900369329181","11.1825536711199","CAL961"
"CAL962_600","Bellini Travalli","43.8860158815661","11.1814125238705","CAL962"
"CAL963_600","Di Legri Di Leccio","43.8878681787475","11.1918843869204","CAL963"
"CAL964_600","Di Legri Di Signorina","43.894089441675","11.2000824604038","CAL964"
"CAL965_600","Di Legri Lago","43.9085159945627","11.2164483786893","CAL965"
"CAL966_600","Alighieri Giovanni Xxiii","43.8489193923929","11.1798945920762","CAL966"
"CAL967_600","Legri","43.9140659813961","11.2241192723998","CAL967"
"CAL968_600","Di Legri Parco Pubblico","43.9113296276151","11.2189938030218","CAL968"
"CAL969_600","Di Legri Di Volmiano","43.9081806654789","11.2160980738169","CAL969"
"CAL970_600","Di Legri Sp107","43.8946852233645","11.2002351344029","CAL970"
"CAL971_600","Di Legri Di Davanzello","43.888212129476","11.1924930661828","CAL971"
"CAL972_600","Della Chiusa Di Davanzello","43.8824369034693","11.1802409787906","CAL972"
"CAL973_600","Della Chiusa Sp8","43.8780884392204","11.1764555502264","CAL973"
"CAL974_600","Della Chiusa Del Colle","43.8725024393212","11.1707465168852","CAL974"
"CAL975_600","Cimitero Carraia","43.8964496930498","11.1755681797003","CAL975"
"CAL977_600","Calenzano","43.8648833539701","11.1661206466003","CAL977"
"CAL978_600","Puccini Mascagni","43.8610657425842","11.1609007250669","CAL978"
"CAL979_600","Puccini Del Molino","43.8587327797525","11.1583387341035","CAL979"
"CAL980_600","Puccini Ponte Alla Marina","43.8555553939768","11.1551959420254","CAL980"
"CBI000_600","Barberinese Pertiche","43.8130496797197","11.1196124705231","CBI000"
"CBI001_600","Gkn","43.8448476567302","11.1407343348309","CBI001"
"CBI002_600","Di San Donnino Case Papucci","43.7910040037723","11.1504782345138","CBI002"
"CBI004_600","Barberinese Volta Prata","43.8177770104357","11.1215252427799","CBI004"
"CBI013_600","I Gigli","43.8447902038024","11.1413978202635","CBI013"
"CBI018_600","Santo Stefano Matteotti","43.8215221694969","11.1365164039539","CBI018"
"CBI019_600","San Quirico Cimitero","43.8409415707839","11.1334404966563","CBI019"
"CBI020_600","San Quirico Einstein","43.8436502107676","11.1416944526025","CBI020"
"CBI021_600","Tesi Cimabue","43.8183429433257","11.1435388464036","CBI021"
"CBI022_600","Fratelli Cervi Marinella","43.8481919661352","11.1340224801143","CBI022"
"CBI023_600","Del Paradiso","43.8245832113356","11.120097735104","CBI023"
"CBI024_600","Palestro Di Gramignano","43.8226024768815","11.1186355259937","CBI024"
"CBI025_600","Fiesoli Barberinese","43.8254708497155","11.1290060458867","CBI025"
"CBI026_600","Fiesoli Cimitero Comunale","43.826641066107","11.1263598721582","CBI026"
"CBI027_600","Fiesoli Cimitero Misericordia","43.8281038386606","11.122744594429","CBI027"
"CBI028_600","Pistoiese Fra' Guittone","43.8065795103438","11.1111861642509","CBI028"
"CBI029_600","Pistoiese Del Maggino","43.8076467046564","11.1026081798592","CBI029"
"CBI030_600","Pistoiese Del Tegolare","43.8091073811512","11.0917032014693","CBI030"
"CBI031_600","Volta Prata","43.8184485551286","11.1229416996272","CBI031"
"CBI032_600","Di Gramignano Magenta","43.8213125305389","11.1209510122626","CBI032"
"CBI033_600","Orly","43.8234907335312","11.1426956846089","CBI033"
"CBI034_600","Moro Villa Rucellai","43.8192666177583","11.1401337089999","CBI034"
"CBI035_600","Verdi Scuole","43.8216074397415","11.1406183977193","CBI035"
"CBI036_600","Buozzi Municipio","43.8206856583987","11.138878744412","CBI036"
"CBI037_600","San Martino Pistoiese","43.8060875860059","11.1185285634339","CBI037"
"CBI039_600","Buozzi Focognano","43.8157573600371","11.1527205061005","CBI039"
"CBI040_600","Buozzi Cetino","43.817656516027","11.1453328063557","CBI040"
"CBI043_600","Carraia Giardini","43.8081034670543","11.1233585916024","CBI043"
"CBI044_600","San Martino Carraia","43.8085062066482","11.1206483492756","CBI044"
"CBI045_600","Santa Maria","43.8255938298209","11.1349595031461","CBI045"
"CBI046_600","Olmo La Villa","43.8291257678079","11.1333753953267","CBI046"
"CBI047_600","Olmo Giusti","43.8282191709509","11.1351557207568","CBI047"
"CBI048_600","Confini Variante Nord","43.8323292245444","11.1320234952333","CBI048"
"CBI049_600","Confini Volta","43.8351743369762","11.1320222190449","CBI049"
"CBI050_600","Confini Centola","43.8393750011227","11.1293373458557","CBI050"
"CBI051_600","Galilei Confini","43.8421862461532","11.1275294702228","CBI051"
"CBI052_600","Campi Bisenzio Galilei","43.8440267965913","11.1272806787737","CBI052"
"CBI053_600","Confini Galilei","43.8422970388787","11.126656424248","CBI053"
"CBI055_600","Confini Togliatti","43.8350139485193","11.1319325497863","CBI055"
"CBI056_600","Confini Barberinese","43.8318953120126","11.1318758946984","CBI056"
"CBI057_600","Barberinese La Villa","43.8297408868219","11.13080888726","CBI057"
"CBI058_600","Barberinese Castronella","43.8284647469459","11.1297172374283","CBI058"
"CBI059_600","Fiesoli Pasolini","43.8255748764538","11.1284967587153","CBI059"
"CBI060_600","Fiesoli San Martino","43.8241471046309","11.1309502506087","CBI060"
"CBI061_600","San Quirico Leonardo Da Vinci","43.8468423826776","11.1452687125553","CBI061"
"CBI064_600","Buozzi Puccini","43.8202446518597","11.1415131845324","CBI064"
"CBI065_600","Buozzi Palagetta","43.8173600804573","11.1457760405946","CBI065"
"CBI066_600","Buozzi Oasi Wwf","43.8157439603014","11.1524760077888","CBI066"
"CBI072_600","Scuola Garibaldi","43.8284852070722","11.133445844628","CBI072"
"CBI113_600","Santo Stefano Primo Maggio","43.8214654872079","11.1364180091508","CBI113"
"CBI114_600","Roma Rocca Strozzi","43.8230762486758","11.1333237351541","CBI114"
"CBI126_600","Verdi Vittorio Veneto","43.8217889310872","11.1405425018722","CBI126"
"CBI127_600","Piazza Dante","43.8209558473963","11.1379122421389","CBI127"
"CBI133_600","Vittorio Veneto Risorgimento","43.8218062104746","11.143462291263","CBI133"
"CBI154_600","Bruno Scuole","43.8154151261915","11.1401763824668","CBI154"
"CBI160_600","Pistoiese Villari","43.7941163399643","11.1549308856223","CBI160"
"CBI161_600","Pistoiese San Donnino","43.7958654503485","11.1497841110474","CBI161"
"CBI162_600","Pistoiese San Jacopo","43.7970952733111","11.1471060298675","CBI162"
"CBI163_600","Pistoiese Variante","43.7990333946156","11.1424239030324","CBI163"
"CBI164_600","Pistoiese Baccellina","43.8014162023064","11.1365810543066","CBI164"
"CBI165_600","Pistoiese Crescia","43.8024680112599","11.1340173224848","CBI165"
"CBI166_600","Pistoiese Del Santo","43.8045333214147","11.1258611217422","CBI166"
"CBI167_600","Pistoiese Barberinese","43.805688581755","11.1186822864623","CBI167"
"CBI169_600","Indicatore","43.807380616565","11.1155579089484","CBI169"
"CBI170_600","San Quirico Biancospino","43.8437728700333","11.1416350887585","CBI170"
"CBI173_600","Xxiv Maggio","43.8228146818494","11.1328892114187","CBI173"
"CBI174_600","San Lorenzo Tosca Fiesoli","43.8242090890226","11.129799041598","CBI174"
"CBI175_600","Pistoiese Platani","43.7989686509106","11.1422755303215","CBI175"
"CBI177_600","Pistoiese Costituzione","43.7954177639557","11.1506086162473","CBI177"
"CBI182_600","Mammoli San Martino","43.8166019329759","11.1273416646258","CBI182"
"CBI183_600","Torricella Convento","43.8142308077132","11.132101920352","CBI183"
"CBI184_600","Torricella Baracca","43.8074554029004","11.1263206721796","CBI184"
"CBI191_600","Pistoiese Bassa","43.8101419628615","11.086085492888","CBI191"
"CBI192_600","Sant'Angelo A Lecore","43.8114625230733","11.0827931876431","CBI192"
"CBI193_600","Pistoiese Crocicchio Dell'Oro","43.8115557607527","11.0784153060342","CBI193"
"CBI194_600","Pistoiese Le Mosche","43.8123871852771","11.0735376603918","CBI194"
"CBI195_600","Pistoiese Caiano","43.8133393999156","11.0677056137774","CBI195"
"CBI196_600","Pistoiese Carcerina","43.8139685574448","11.0640216107283","CBI196"
"CBI199_600","Bassa","43.8111715987902","11.082453597446","CBI199"
"CBI202_600","San Martino Torricella","43.8154990001253","11.128067178943","CBI202"
"CBI203_600","San Martino Manetti","43.8177499054534","11.1290315511067","CBI203"
"CBI204_600","Manetti","43.8190796018623","11.1286995622478","CBI204"
"CBI205_600","Di Gramignano Palestro","43.8216731241978","11.1204415043297","CBI205"
"CBI206_600","Palestro Cinque Giornate","43.8229390827617","11.1189334510975","CBI206"
"CBI207_600","Chiella","43.8265623953134","11.1211478518652","CBI207"
"CBI208_600","Fiesoli Petrarca","43.8270449108247","11.1252207446245","CBI208"
"CBI209_600","Fratelli Cervi Del Pantano","43.8484292111627","11.1336559151743","CBI209"
"CBI210_600","Del Pantano Lago Pecci","43.8497760788861","11.1326602697273","CBI210"
"CBI214_600","Scuola Verga","43.7953927934141","11.1488256053209","CBI214"
"CBI294_600","Fra' Guittone","43.8069870257401","11.1120132762701","CBI294"
"CBI299_600","Pt San Piero","43.8059531297845","11.1378910428136","CBI299"
"CBI300_600","Delle Rose","43.8070762351243","11.1393380664821","CBI300"
"CBI301_600","Berlinguer Bassa","43.8109835345448","11.0858345647153","CBI301"
"CBI310_600","Palagetta Bruno","43.8153890008188","11.1438216909664","CBI310"
"CBI318_600","Di San Donnino Delle Viottole","43.7913661835476","11.149652275257","CBI318"
"CBI339_600","Togliatti Confini","43.8344555743409","11.1314586800365","CBI339"
"CBI350_600","Delle Molina Trento","43.7939336423134","11.1471807741638","CBI350"
"CBI351_600","Delle Molina Valico","43.7911704546287","11.1327140234848","CBI351"
"CBI376_600","Pistoiese Erbosa","43.7971940600081","11.1466403316444","CBI376"
"CBI405_600","Allende Einstein","43.8373832007241","11.1539381991104","CBI405"
"CBI406_600","Allende Maestri Del Lavoro","43.8354687854188","11.1532847165752","CBI406"
"CBI484_600","Maiano Confini","43.845332394399","11.1205380156946","CBI484"
"CBI485_600","Mammoli Terracini","43.8173687796032","11.1253234561601","CBI485"
"CBI509_600","Trento Parco Chico Mendez","43.7892142696672","11.144866279786","CBI509"
"CBI514_600","Trento San Donnino","43.7917639939121","11.1466913498251","CBI514"
"CBI595_600","San Donnino Fs","43.7857068770646","11.1422552625186","CBI595"
"CBI598_600","Trento Fosso Secco","43.7940523828238","11.14948447937","CBI598"
"CBI599_600","Fosso Secco","43.7938759994634","11.1519189841085","CBI599"
"CBI601_600","Caracciolo Cerretelli","43.8046255568697","11.1356773333104","CBI601"
"CBI602_600","Palagetta San Giusto","43.809907971788","11.1389073106229","CBI602"
"CBI603_600","Palagetta Prunaia","43.8140208524642","11.142841757497","CBI603"
"CBI606_600","Allende","43.8257435306209","11.1449914107385","CBI606"
"CBI607_600","Allende Tomerello","43.8350340612049","11.153191215804","CBI607"
"CBI627_600","Olmi Allende","43.844410665128","11.158930765843","CBI627"
"CBI629_600","Saliscendi Variante Nord","43.8243746220241","11.1433214571413","CBI629"
"CBI631_600","Palagetta Buozzi","43.8169773422126","11.1451816498993","CBI631"
"CBI632_600","Palagetta Variante Sud","43.8125237741828","11.1412946529575","CBI632"
"CBI633_600","Palagetta Liberto Roti","43.8097672974293","11.1387988478531","CBI633"
"CBI634_600","Della Crescia Caracciolo","43.8062222900599","11.1359536711284","CBI634"
"CBI635_600","Della Crescia Pistoiese","43.8030456107291","11.1332205312724","CBI635"
"CBI636_600","Trento Pistoiese","43.7946173779365","11.1500811620407","CBI636"
"CBI638_600","Delle Molina Fosso Macinante","43.7936864129125","11.14500454269","CBI638"
"CBI657_600","Il Rosi","43.85771195667","11.1400982182417","CBI657"
"CBI679_600","Barberinese Indicatore","43.8063626770294","11.1168024669556","CBI679"
"CBI680_600","Barberinese Paradiso","43.8235128741987","11.1256067998473","CBI680"
"CBI681_600","Confini Della Colonna","43.8376993133572","11.132048414511","CBI681"
"CBI688_600","Officine Galileo","43.8423707610588","11.1491761206229","CBI688"
"CBI691_600","San Quirico Pantano","43.8407733181264","11.133289892977","CBI691"
"CBI705_600","Trento Delle Molina","43.7926964482627","11.1478573513863","CBI705"
"CBI712_600","Delle Molina Dei Bassi","43.7907071499988","11.1305225046576","CBI712"
"CBI798_600","Einstein Officine Galileo","43.8406462648964","11.1499118488782","CBI798"
"CBI799_600","Einstein Allende","43.8404964341633","11.1499795460566","CBI799"
"CBI837_600","Campi Bisenzio Togliatti","43.8345446448812","11.131269064453","CBI837"
"CBI857_600","Buozzi Rossini","43.8197586234009","11.1427050902115","CBI857"
"CBI858_600","Campi Bisenzio Tintori","43.8201219899249","11.1406119320798","CBI858"
"CBI859_600","Don Gnocchi","43.8189200282085","11.1370630246958","CBI859"
"CBI861_600","Cellerese Leonardo Da Vinci","43.8528208927256","11.1354053382651","CBI861"
"CBI862_600","Bruno Croce","43.8165228413348","11.135441253254","CBI862"
"CBI863_600","Bruno Buonarroti","43.815630458772","11.1386251695148","CBI863"
"CBI864_600","Palagetta Gelsomino","43.815496746327","11.1440773343184","CBI864"
"CBI865_600","Barberinese Magenta","43.8238832649173","11.1257816115671","CBI865"
"CBI867_600","Magenta","43.8220984147152","11.1227508770356","CBI867"
"CBI868_600","Trieste Buozzi","43.820622730142","11.1422370531914","CBI868"
"CBI885_600","Ferrucci Montalvo","43.8222609558637","11.1384142797304","CBI885"
"CBI887_600","Campo La Villa","43.8365330347482","11.1296529211571","CBI887"
"CBI891_600","Barberinese Fiesoli","43.8276069435286","11.1291255295949","CBI891"
"CBI892_600","Palagetta Padule","43.812131234394","11.14110189388","CBI892"
"CBI912_600","Paradiso Villa Palagio","43.8216257813221","11.1282985044371","CBI912"
"CBI922_600","Variante Nord Saliscendi","43.8262865300737","11.1426837456597","CBI922"
"CBI923_600","Confini Capalle","43.8378178710801","11.1317261254101","CBI923"
"CBI924_600","Saliscendi Genova","43.8228275911198","11.1412807276464","CBI924"
"CBI928_600","Piazza Gramsci","43.8235501064725","11.1333248733817","CBI928"
"CBI929_600","Variante Nord Montalvo","43.8264916816601","11.1425465163366","CBI929"
"CBI930_600","Vittorio Veneto Marzabotto","43.8218353300579","11.1440695515963","CBI930"
"CBI938_600","Buozzi Donizetti","43.8186012549597","11.1439273459325","CBI938"
"CBI996_600","Pistoiese Giuncheta","43.8049669791624","11.1231182140141","CBI996"
"CBI997_600","Barberinese Carraia","43.8098911038837","11.1183102789432","CBI997"
"CBI999_600","Barberinese Variante Sud","43.8127255620148","11.1193694307537","CBI999"
"FI0003_600","Basili Martucci","43.7981819000202","11.201608703993","FI0003"
"FI0004_600","Basili Pratese","43.7984115143069","11.2018129170259","FI0004"
"FI0005_600","Pratellino Ponte Al Pino","43.7828964703911","11.2721489480788","FI0005"
"FI0006_600","Faentina Palancola","43.7920076046583","11.270311371801","FI0006"
"FI0007_600","Faentina Ponte Alle Riffe","43.7906643879448","11.2685841761768","FI0007"
"FI0008_600","San Marco Vecchio Fs","43.7889683679144","11.2677199188993","FI0008"
"FI0009_600","Boccaccio Cino Da Pistoia","43.7935087459127","11.2740550733586","FI0009"
"FI0010_600","Boccaccio Compagni","43.7903084714687","11.2731273601395","FI0010"
"FI0011_600","Boccaccio Calandrino","43.7885944805386","11.2708050814917","FI0011"
"FI0012_600","Borghini","43.7873122756398","11.2689528983188","FI0012"
"FI0013_600","Don Minzoni Pascoli","43.7862058754906","11.2675408626474","FI0013"
"FI0014_600","Pecori Vecchietti","43.7727739055173","11.2524558857485","FI0014"
"FI0016_600","Faentina Il Cionfo","43.796374175863","11.2732595169355","FI0016"
"FI0017_600","Xxvii Aprile Santa Reparata","43.7789967954703","11.2560584942252","FI0017"
"FI0018_600","Cavour Palazzo Medici","43.7761718130553","11.256840356841","FI0018"
"FI0019_600","Faentina Fusinato","43.7979286898001","11.2743191144997","FI0019"
"FI0020_600","Sant'Anna","43.7814623789596","11.2601907144834","FI0020"
"FI0021_600","Scala Orti Oricellari","43.7759889483048","11.2451020767537","FI0021"
"FI0022_600","Landino","43.7838602780584","11.258765837887","FI0022"
"FI0024_600","Malaparte San Martino","43.7972187581314","11.163453145756","FI0024"
"FI0027_600","Piazza Batoni","43.7744795366244","11.22121991603","FI0027"
"FI0031_600","Canova Sernesi","43.7749049725405","11.2111244427055","FI0031"
"FI0032_600","Pampaloni Corcos","43.7737886223057","11.2088581783625","FI0032"
"FI0033_600","Bezzuoli Le Torri","43.7731181466241","11.2071477748127","FI0033"
"FI0034_600","Lunga Le Torri","43.7738303448136","11.204302194082","FI0034"
"FI0035_600","Martini Livorno","43.7746366075859","11.199841586911","FI0035"
"FI0036_600","Martini Bassi","43.7749567635308","11.1972408696145","FI0036"
"FI0037_600","Martini Signorelli","43.7759163831615","11.1941571754047","FI0037"
"FI0038_600","Signorelli Bramante","43.7773613225666","11.1948853887028","FI0038"
"FI0039_600","Canova Maccari","43.7763335599994","11.2082523920525","FI0039"
"FI0040_600","Canova Fedi","43.7772483132872","11.2054094618785","FI0040"
"FI0041_600","Canova Giuncoli","43.7782101875687","11.2022202431881","FI0041"
"FI0042_600","Canova Chiusi","43.7789926719982","11.1987571786438","FI0042"
"FI0043_600","Bibliotecanova","43.7798738653128","11.1949272027537","FI0043"
"FI0045_600","Canova Santa Maria A Cintoia","43.7806090524974","11.1924198172796","FI0045"
"FI0046_600","Canova Martini","43.7815008141471","11.1898163745015","FI0046"
"FI0047_600","Martini S. Bartolo A Cintoia","43.7791621114399","11.1880565252198","FI0047"
"FI0048_600","Martini Mantegna","43.7771725345244","11.1913342879481","FI0048"
"FI0049_600","Cavallaccio Casella","43.7742948800519","11.190976958912","FI0049"
"FI0050_600","Stazione Nazionale","43.7760930331971","11.249925283435","FI0050"
"FI0053_600","Signorelli Martini","43.7770297052007","11.1945535961192","FI0053"
"FI0054_600","Porta Rossa","43.7702523595728","11.2536760899352","FI0054"
"FI0055_600","Martini Madonna Di Pagano","43.7778369387936","11.1902573011727","FI0055"
"FI0056_600","Martini Canova","43.7803593263584","11.1878345873004","FI0056"
"FI0057_600","Canova Querci","43.7811778522762","11.1904600938952","FI0057"
"FI0058_600","Canova Nigetti","43.7804096247786","11.1927247453298","FI0058"
"FI0059_600","Canova Signorelli","43.779694738828","11.1951986021262","FI0059"
"FI0060_600","Canova Bassi","43.7787389925527","11.1993070604466","FI0060"
"FI0061_600","Canova Interno 25","43.7782566656611","11.2014437607741","FI0061"
"FI0062_600","Canova Torri","43.7772957321651","11.2049259091984","FI0062"
"FI0063_600","Canova Villa Vogel","43.7762792789906","11.2080329427431","FI0063"
"FI0065_600","Cavallaccio Martini","43.7762913332328","11.1928935229945","FI0065"
"FI0066_600","Martini Il Cavallaccio","43.7754888909882","11.1946168163125","FI0066"
"FI0067_600","Martini Scuole","43.7747705507398","11.1975602163554","FI0067"
"FI0068_600","Martini Lunga","43.7744867039982","11.2006126761528","FI0068"
"FI0069_600","Lunga Tommasi","43.7742111446731","11.2036980277769","FI0069"
"FI0070_600","Bezzuoli Pampaloni","43.7730438872494","11.2065641694778","FI0070"
"FI0072_600","Canova Muricce","43.7750394925381","11.2106867431333","FI0072"
"FI0077_600","Gran Bretagna Portogallo","43.7601437065022","11.2989270338088","FI0077"
"FI0078_600","Bracciolini Ravenna","43.7631914540872","11.2820848308864","FI0078"
"FI0079_600","Vittorio Veneto","43.7763250390932","11.237492078077","FI0079"
"FI0080_600","D'Annunzio Rondinella","43.7753804651418","11.2904931387746","FI0080"
"FI0081_600","Rondinella Martini","43.7738314805162","11.2952223563442","FI0081"
"FI0082_600","Stazione Via Panzani","43.7741691806898","11.2508690744534","FI0082"
"FI0083_600","Novelli","43.7754932853526","11.2945171178504","FI0083"
"FI0085_600","Venezia","43.7810586249217","11.2619530163502","FI0085"
"FI0087_600","Don Minzoni Giordano","43.7860451054019","11.2674757504036","FI0087"
"FI0088_600","Firenzuola","43.7870097228976","11.2701782791216","FI0088"
"FI0089_600","Madonna Della Querce","43.788037891697","11.2723080044172","FI0089"
"FI0090_600","Caracciolo Sercambi","43.7892443609169","11.271243875449","FI0090"
"FI0091_600","Caracciolo Rimbotti","43.7910147566713","11.273147306509","FI0091"
"FI0092_600","Cuoco","43.7937711034019","11.2728609321688","FI0092"
"FI0093_600","Faentina Confalonieri","43.7961682720488","11.273200433983","FI0093"
"FI0094_600","Faentina Pietrafitta","43.7976712103883","11.2742322142001","FI0094"
"FI0095_600","Faentina Dall'Ongaro","43.79949104042","11.2758887189502","FI0095"
"FI0096_600","Maffei Fra' Guittone","43.7907073950905","11.2748018468144","FI0096"
"FI0097_600","Maffei Guinizzelli","43.792144111082","11.2758940682771","FI0097"
"FI0098_600","Pollaiolo Fra' Diamante","43.7717628030936","11.2193121276118","FI0098"
"FI0099_600","Monticelli","43.7721605208903","11.2253040890359","FI0099"
"FI0105_600","Rifredi Fs Via Pancaldo","43.8019740658321","11.2340250354734","FI0105"
"FI0106_600","Ospedale Torre Galli","43.7587113458675","11.202543415962","FI0106"
"FI0107_600","Di Scandicci Di Soffiano","43.7619846897808","11.2069463169137","FI0107"
"FI0108_600","Di Scandicci Filarete","43.7650044569754","11.2104862496161","FI0108"
"FI0109_600","Filarete Scuole","43.7658108236421","11.2139448675128","FI0109"
"FI0110_600","Filarete Soffiano","43.7643521941719","11.2176615142349","FI0110"
"FI0111_600","Di Soffiano","43.7667135866985","11.2207786425592","FI0111"
"FI0112_600","Starnina Soffiano","43.7680185827708","11.2210366034961","FI0112"
"FI0113_600","Masolino Pisana","43.7707323674911","11.2213079141314","FI0113"
"FI0114_600","Pisana Monticelli","43.7715302893425","11.2237960740466","FI0114"
"FI0115_600","Pisana Villa Strozzi","43.7723747561544","11.2301267642606","FI0115"
"FI0116_600","Milton","43.7844510830926","11.255840803266","FI0116"
"FI0117_600","Piazza Puccini","43.7861121343603","11.2281505579423","FI0117"
"FI0118_600","Toselli Veracini","43.7855541762792","11.2311357673167","FI0118"
"FI0119_600","Ponte Alle Mosse Puccini","43.7852961573499","11.2295944615553","FI0119"
"FI0120_600","Doni","43.7852112726695","11.2320970209085","FI0120"
"FI0121_600","Dallapiccola","43.7869218671876","11.2337126459719","FI0121"
"FI0123_600","Mariti Da Empoli","43.7908944791548","11.2345271604147","FI0123"
"FI0124_600","Mariti Della Valle","43.7937080337258","11.2370588780034","FI0124"
"FI0125_600","Ponte Alle Mosse Leopolda","43.7796381396315","11.238077948684","FI0125"
"FI0126_600","Porte Nuove Belfiore","43.7794388848566","11.2404346359635","FI0126"
"FI0127_600","Toselli Bellini","43.7835071377961","11.2349866086896","FI0127"
"FI0128_600","Caccini Careggi","43.8040937917543","11.2443895965185","FI0128"
"FI0129_600","Panche Delle Gore","43.8053844928156","11.2410160945425","FI0129"
"FI0130_600","Faentina Cuoco","43.7937330286865","11.2720593484708","FI0130"
"FI0131_600","Xxvii Aprile San Zanobi","43.7791814066432","11.2558057285753","FI0131"
"FI0132_600","Giuliani Spinucci","43.8080824352531","11.2338192218282","FI0132"
"FI0133_600","Sestese Sodo","43.8104755233351","11.2327615255551","FI0133"
"FI0134_600","Sestese Crocetta","43.8144374714379","11.2279543268726","FI0134"
"FI0135_600","Sestese Accademia Crusca","43.8161052686853","11.225708362228","FI0135"
"FI0136_600","Sestese Di Bellagio","43.8186109328168","11.222332243315","FI0136"
"FI0137_600","Sestese Termine","43.8204533016584","11.2206519510141","FI0137"
"FI0138_600","Ponte Alle Mosse Marcello","43.7824026111629","11.2348382574186","FI0138"
"FI0149_600","Pistoiese Cavalla","43.7949798687588","11.1965732984529","FI0149"
"FI0150_600","Parcheggio Via Della Quiete","43.8101732197379","11.2449701317363","FI0150"
"FI0151_600","Aselli","43.8080537297026","11.2433242329962","FI0151"
"FI0161_600","Sestese Castello Fs","43.8181942284793","11.2226944771806","FI0161"
"FI0162_600","Sestese Bechi","43.8166229494988","11.2248958188422","FI0162"
"FI0163_600","Sestese Undici Agosto","43.8143798827746","11.2278496692435","FI0163"
"FI0164_600","Sestese Giuliani","43.8105717246158","11.2322571040572","FI0164"
"FI0165_600","Minervini Bassa","43.7688820549342","11.1697797909592","FI0165"
"FI0166_600","Pellas","43.806756233483","11.2362577441022","FI0166"
"FI0167_600","Locchi","43.8049673333732","11.2374947515258","FI0167"
"FI0168_600","Caccini Panche","43.8047463426305","11.2418779819441","FI0168"
"FI0169_600","Morgagni Careggi","43.802977187101","11.2455338045668","FI0169"
"FI0170_600","Morgagni Casa Studente","43.7999779483974","11.244064771378","FI0170"
"FI0171_600","Minervini Sollicciano","43.7691035028836","11.1694973822531","FI0171"
"FI0172_600","Pontignale Pace Mondiale","43.771199921932","11.1619723727276","FI0172"
"FI0173_600","Mariti Ponte Di Mezzo","43.7931201971381","11.236272541009","FI0173"
"FI0174_600","Mariti Buonsignori","43.7907674505193","11.2341169372109","FI0174"
"FI0176_600","Baracca Gori","43.7951348185389","11.2069857223087","FI0176"
"FI0177_600","Pampaloni Muricce","43.7739528863462","11.2091447901143","FI0177"
"FI0179_600","Vanni Gaddi","43.7741623300544","11.2326425649886","FI0179"
"FI0181_600","Vanni Rosso Fiorentino","43.7748079680501","11.2300106581075","FI0181"
"FI0182_600","Rigutini","43.805648370633","11.2319343069588","FI0182"
"FI0183_600","Pisana Cinema Universale","43.7713126629254","11.2356380234116","FI0183"
"FI0185_600","Colonna Pergola","43.7755430551184","11.2631366629392","FI0185"
"FI0186_600","Masolino Olivuzzo","43.7704603127979","11.2214081704465","FI0186"
"FI0187_600","Starnina Di Scandicci","43.7684887048035","11.2188518288668","FI0187"
"FI0188_600","Di Scandicci Bonaiuto","43.7670889295069","11.2156045219121","FI0188"
"FI0189_600","Di Scandicci Arcipressi","43.7659233813252","11.2118525363804","FI0189"
"FI0190_600","Di Scandicci Ronco Corto","43.7646822521593","11.2099215402466","FI0190"
"FI0191_600","Di Scandicci Pesellino","43.7624397061402","11.2071618177294","FI0191"
"FI0192_600","Di Scandicci Torre Galli","43.7593695861423","11.2034262621786","FI0192"
"FI0200_600","Baracca Tagliaferri","43.7918866575894","11.2175706058388","FI0200"
"FI0201_600","Mille Deposito At","43.7847849662349","11.271536937528","FI0201"
"FI0202_600","Mille Marconi","43.7838031045197","11.2733716020724","FI0202"
"FI0203_600","Mille Cairoli","43.7817970165731","11.2771292385775","FI0203"
"FI0204_600","Mille Stadio","43.7808154710703","11.2789435403327","FI0204"
"FI0205_600","Torre Degli Agli Novoli","43.7941596529608","11.2192130411195","FI0205"
"FI0206_600","Fanti Cerreti","43.7813747923102","11.2868850111737","FI0206"
"FI0208_600","Falcucci Arcolaio","43.7773720998241","11.2899510101605","FI0208"
"FI0209_600","D'Annunzio Salvi Cristiani","43.7763643742777","11.2935082339253","FI0209"
"FI0210_600","Salvi Cristiani","43.7761593286024","11.2972156780367","FI0210"
"FI0212_600","D'Annunzio Presidio Asl","43.7755527099745","11.2908833564323","FI0212"
"FI0213_600","D'Annunzio Lungo L'Affrico","43.7748373621232","11.2877170590828","FI0213"
"FI0214_600","De Amicis Torretta","43.7730791511003","11.2846943873712","FI0214"
"FI0215_600","Piagentina Alberti","43.7693940206029","11.2803235610054","FI0215"
"FI0216_600","Piagentina Beato Angelico","43.7679029911252","11.2785663524769","FI0216"
"FI0217_600","Sella Campofiore","43.7667130664328","11.2784140055504","FI0217"
"FI0218_600","De Sanctis Da Verrazzano","43.7663363042826","11.2818270161197","FI0218"
"FI0219_600","Bracciolini Gavinana","43.7628694995796","11.2822014743732","FI0219"
"FI0220_600","Gualfredotto","43.7618280879756","11.2858793700379","FI0220"
"FI0221_600","Datini Traversari","43.759544079758","11.28843365143","FI0221"
"FI0222_600","Datini Erbosa","43.7582396964138","11.2897254872482","FI0222"
"FI0223_600","Gran Bretagna D'Angio'","43.759603054839","11.2920936384485","FI0223"
"FI0224_600","Gran Bretagna Lame","43.7598104977406","11.2962450244832","FI0224"
"FI0225_600","Austria","43.7604698023997","11.3006181097873","FI0225"
"FI0226_600","Nave A Rovezzano","43.7615633867577","11.306885411218","FI0226"
"FI0227_600","Gran Bretagna Kiev","43.7602168062555","11.2993211397014","FI0227"
"FI0228_600","Gran Bretagna Kyoto","43.7598151459627","11.2956688069705","FI0228"
"FI0229_600","Gran Bretagna Erbosa","43.7596840787201","11.2915599660525","FI0229"
"FI0230_600","Datini Federico D'Antiochia","43.7583296004713","11.2897320229025","FI0230"
"FI0231_600","Datini Ser Lapo Mazzei","43.7602629642202","11.2878290754753","FI0231"
"FI0232_600","Datini Gualfredotto","43.7616502892515","11.2863565977449","FI0232"
"FI0233_600","Giovanni Dalle Bande Nere","43.7624735342118","11.2833184483982","FI0233"
"FI0234_600","De Sanctis Sella","43.7667657951668","11.2820872292939","FI0234"
"FI0235_600","De Sanctis Alberti","43.7691574180301","11.2822527514357","FI0235"
"FI0236_600","Lungo L'Affrico","43.772857861901","11.2849546497802","FI0236"
"FI0237_600","D'Annunzio Ramazzini","43.7749534513471","11.2884390570392","FI0237"
"FI0238_600","Rondinella Frullani","43.7752014659606","11.2921230527341","FI0238"
"FI0239_600","Piazzuola","43.7866684680535","11.2745833487445","FI0239"
"FI0241_600","Falcucci Lungo L'Affrico","43.7774498955682","11.2901124117729","FI0241"
"FI0243_600","Fanti Calatafimi","43.7816281395218","11.2867101345364","FI0243"
"FI0245_600","Mille Sette Santi","43.7813300799542","11.2781957438017","FI0245"
"FI0246_600","Mille Pacinotti","43.7841435805925","11.2730023696296","FI0246"
"FI0247_600","Pacinotti Volta","43.7845053519546","11.2731465722412","FI0247"
"FI0248_600","Olio Duomo","43.7730173377281","11.2540409602877","FI0248"
"FI0255_600","Fabbroni Gioia","43.7896600113454","11.2540545171274","FI0255"
"FI0256_600","Vittorio Emanuele Giorgini","43.7923636362022","11.251640844626","FI0256"
"FI0257_600","Vittorio Emanuele Poggetto","43.7932448376028","11.248041493221","FI0257"
"FI0258_600","Celso","43.7948080327286","11.2454681559286","FI0258"
"FI0259_600","Mercati","43.7948040641706","11.2488737148795","FI0259"
"FI0260_600","Cappuccini","43.7957583377266","11.2509355754137","FI0260"
"FI0261_600","Scuola Di Ingegneria","43.7974800667888","11.254026979014","FI0261"
"FI0262_600","Massaia","43.7949475711107","11.2534702895056","FI0262"
"FI0263_600","Vittorio Emanuele Stibbert","43.7922115460213","11.2518200759447","FI0263"
"FI0264_600","Fabbroni Bigozzi","43.7896081846628","11.2548557608304","FI0264"
"FI0265_600","Panzani Unita'","43.7743523649088","11.2507491464208","FI0265"
"FI0266_600","Dalla Chiesa Campeggio","43.7655949797484","11.3152695004419","FI0266"
"FI0267_600","Santa Reparata","43.7790463604913","11.2566077380631","FI0267"
"FI0269_600","Stazione Montelungo","43.7807659034555","11.2466742526376","FI0269"
"FI0272_600","Arcipressi","43.7665019724024","11.2121953301745","FI0272"
"FI0274_600","Legnaia","43.7695268433712","11.2156956743159","FI0274"
"FI0275_600","Pollaiolo Cigoli","43.7710256108314","11.2147833975581","FI0275"
"FI0276_600","Stazione Orti Oricellari","43.7764996145094","11.2459179963664","FI0276"
"FI0277_600","Foggini Talenti","43.7717086207596","11.2122925905305","FI0277"
"FI0278_600","Gennarelli","43.7777959184264","11.2782557060547","FI0278"
"FI0279_600","Massa Fedi","43.7797143015034","11.2040602280993","FI0279"
"FI0280_600","Massa Bassi","43.7803065531608","11.2011275713688","FI0280"
"FI0281_600","Massa Sansepolcro","43.7809456341696","11.1985647151343","FI0281"
"FI0282_600","Indiano Cascine","43.7925669462074","11.1982109753776","FI0282"
"FI0289_600","Giacomini","43.7835955055209","11.2650126154346","FI0289"
"FI0290_600","Del Prete Piccagli","43.7969174875119","11.2278592508719","FI0290"
"FI0291_600","Magellano Dei","43.7982474127466","11.2321427630148","FI0291"
"FI0292_600","Magellano Panciatichi","43.8001947590185","11.233027953738","FI0292"
"FI0293_600","Panciatichi Tre Pietre","43.802279402188","11.2308400601518","FI0293"
"FI0296_600","Piazza Mattei","43.8025466773677","11.2302194998549","FI0296"
"FI0297_600","Panciatichi Pancaldo","43.8015654811414","11.2314365862152","FI0297"
"FI0298_600","Campo Sportivo Rifredi","43.7998111012396","11.23275261453","FI0298"
"FI0299_600","Magellano Caciolle","43.7977732881207","11.2315253466853","FI0299"
"FI0300_600","Del Prete Barsanti","43.7972145209723","11.227632566619","FI0300"
"FI0301_600","T1 Cascine - Carlo Monni","43.7779812094309","11.230958088025","FI0301"
"FI0306_600","Marconi Caselli","43.7836427134784","11.2769041840849","FI0306"
"FI0307_600","Baracca Allori","43.7942383590921","11.2100445494023","FI0307"
"FI0309_600","Indiano Peretola","43.7926003005048","11.1978812723902","FI0309"
"FI0310_600","Sarti Canova","43.7828155166171","11.187456629623","FI0310"
"FI0316_600","Cigoli","43.7727516026911","11.2144572886603","FI0316"
"FI0317_600","Sant'Angelo","43.7703920210625","11.2158844264568","FI0317"
"FI0319_600","Scipione Ammirato","43.7704599148786","11.2806001442797","FI0319"
"FI0320_600","Landucci Fra' Paolo Sarpi","43.7723483300217","11.2784603050196","FI0320"
"FI0321_600","Oberdan Bovio","43.7729919633939","11.2748519784591","FI0321"
"FI0322_600","Segni","43.775066842507","11.2717062589828","FI0322"
"FI0323_600","Mattonaia","43.7732216579462","11.2688661864976","FI0323"
"FI0325_600","Colonna Liceo Castelnuovo","43.7747973380932","11.2648744900895","FI0325"
"FI0326_600","Colonna Museo Archeologico","43.7760677004227","11.2622087516669","FI0326"
"FI0329_600","Sant'Egidio","43.7725947598991","11.260618084959","FI0329"
"FI0331_600","Pescaia Di Santa Rosa","43.7698895935426","11.246449837508","FI0331"
"FI0332_600","Soderini Torrino Santa Rosa","43.7716577981182","11.2414579226995","FI0332"
"FI0333_600","Lungarno Di Santa Rosa","43.7726219667007","11.2384327436246","FI0333"
"FI0334_600","Santa Maria Al Pignone","43.7734284284239","11.2354109091232","FI0334"
"FI0335_600","Aretina De Nicola","43.7678986989004","11.2981075767956","FI0335"
"FI0336_600","Pollaiolo Ammannati","43.7722289124748","11.2215820094544","FI0336"
"FI0337_600","Pollaiolo Cortona","43.7716030073725","11.2179714830451","FI0337"
"FI0338_600","Pier Della Francesca Pisana","43.7703248175775","11.2121531551566","FI0338"
"FI0339_600","Pisana Legnaia","43.7701301917682","11.2147612109572","FI0339"
"FI0340_600","Pisana Sant'Angelo","43.7701167749461","11.2166135161678","FI0340"
"FI0341_600","Pisana Fra' Diamante","43.7708056387856","11.2210124363628","FI0341"
"FI0342_600","Filarete Guido Da Siena","43.7657203716296","11.2139663770544","FI0342"
"FI0343_600","Cimitero Di Soffiano","43.7619090900334","11.2167615078966","FI0343"
"FI0344_600","Matteo Di Giovanni","43.7659954531094","11.2176554735117","FI0344"
"FI0346_600","Porta San Frediano","43.7706666452566","11.2392015469603","FI0346"
"FI0347_600","San Frediano Cestello","43.7698185824956","11.2434429567561","FI0347"
"FI0348_600","San Frediano Serragli","43.7691938291546","11.2458898505011","FI0348"
"FI0349_600","Ariosto Dell'Orto","43.7688719950556","11.2395818330093","FI0349"
"FI0352_600","Santissima Annunziata","43.7769994071891","11.2605200508754","FI0352"
"FI0353_600","Colonna Liceo Michelangiolo","43.7743515787825","11.2655054531376","FI0353"
"FI0354_600","Niccolini","43.7730092123137","11.268324817457","FI0354"
"FI0355_600","Leopardi Gramsci","43.7724618619707","11.2704971221128","FI0355"
"FI0356_600","Mazzini Bovio","43.77457293671","11.2727732202745","FI0356"
"FI0357_600","Oberdan Campanella","43.7723039494847","11.2750402157842","FI0357"
"FI0358_600","Landucci Da Bisticci","43.7722113988377","11.278554502933","FI0358"
"FI0359_600","Villa Arrivabene","43.7703462539417","11.280881586761","FI0359"
"FI0360_600","Mille Passavanti","43.7854715584595","11.2702875627216","FI0360"
"FI0361_600","Volta Galvani","43.7844084464428","11.2757526570469","FI0361"
"FI0362_600","Volta Ferraris","43.7860190273518","11.2809961631612","FI0362"
"FI0363_600","Piazza Edison","43.7869501007558","11.283514068865","FI0363"
"FI0364_600","Di San Domenico Edison","43.7882299147657","11.2856989149804","FI0364"
"FI0365_600","Di San Domenico Palmerino","43.7906595671693","11.2870525511212","FI0365"
"FI0366_600","Di San Domenico Frullino","43.792911031024","11.2868577619187","FI0366"
"FI0367_600","Di San Domenico Curvone","43.795275034206","11.2841279764655","FI0367"
"FI0368_600","Di San Domenico Colline","43.7966629111694","11.2863110542989","FI0368"
"FI0369_600","Di San Domenico Presidio Asl","43.7990789312877","11.2852565156339","FI0369"
"FI0370_600","Di San Domenico Istituto Europeo","43.8006921102872","11.2854034959317","FI0370"
"FI0381_600","Di San Domenico Piazzuola","43.7988757368726","11.2850623108632","FI0381"
"FI0382_600","Di San Domenico Camerata","43.7962552991429","11.2864337873475","FI0382"
"FI0383_600","Di San Domenico Da Todi","43.7954890725349","11.2838429784857","FI0383"
"FI0384_600","Di San Domenico Donati","43.7925976732483","11.2867696784809","FI0384"
"FI0385_600","Di San Domenico Gianni","43.7902117739569","11.2867687695457","FI0385"
"FI0386_600","Edison Volta","43.786675548597","11.282385101724","FI0386"
"FI0387_600","Volta Cocchi","43.785767659045","11.2802516256753","FI0387"
"FI0388_600","Volta Aldini","43.7848970287357","11.2781168963687","FI0388"
"FI0389_600","Volta Piazzuola","43.785258861083","11.2730601843428","FI0389"
"FI0390_600","Volta Cure","43.7866842786388","11.2697462660652","FI0390"
"FI0392_600","Europa Romania","43.7570612626066","11.2972981621057","FI0392"
"FI0393_600","Europa Turchia","43.7569000273543","11.2943449396395","FI0393"
"FI0394_600","Giannotti Piazza Bartali","43.7566552915059","11.288654537118","FI0394"
"FI0395_600","Giannotti Traversari","43.7583143987715","11.2866792317936","FI0395"
"FI0396_600","Giannotti Bocchi","43.7604108800127","11.2847120235332","FI0396"
"FI0397_600","Giannotti Gavinana","43.7617498005244","11.2834912256417","FI0397"
"FI0398_600","Salutati Bruni","43.7625896747634","11.2790804492457","FI0398"
"FI0399_600","Baldovini","43.7628727506687","11.2752680366089","FI0399"
"FI0400_600","Orsini Ferrucci","43.7636101913664","11.2723703575094","FI0400"
"FI0401_600","Amendola Arnolfo","43.7671457558825","11.2713799074344","FI0401"
"FI0402_600","Amendola Gioberti","43.7696843196708","11.2711747307622","FI0402"
"FI0403_600","Gramsci Beccaria","43.7718007708403","11.2711430388892","FI0403"
"FI0404_600","Gramsci Segni","43.7742355003625","11.2709525511309","FI0404"
"FI0405_600","Gramsci Donatello","43.7763316493369","11.2692239723498","FI0405"
"FI0406_600","Matteotti Artisti","43.7788423573216","11.2667662435615","FI0406"
"FI0407_600","Matteotti Valori","43.7817347007257","11.2641842882903","FI0407"
"FI0414_600","Piazza Dalmazia","43.7945916818757","11.2399786203772","FI0414"
"FI0423_600","Matteotti Lamarmora","43.7822633568582","11.2634042628856","FI0423"
"FI0424_600","Matteotti Borgo Pinti","43.778683516576","11.2668897211631","FI0424"
"FI0425_600","Piazzale Donatello","43.7768010898489","11.2682538792704","FI0425"
"FI0426_600","Gramsci Mattonaia","43.7740457054008","11.2709888537085","FI0426"
"FI0427_600","Gramsci Porta Alla Croce","43.7715313997407","11.2708796858592","FI0427"
"FI0428_600","Giovine Italia","43.7689117090518","11.2697306741294","FI0428"
"FI0429_600","Pecori Giraldi","43.7658950470006","11.2704349542077","FI0429"
"FI0430_600","Orsini Michelangiolo","43.7634613975267","11.2726085254771","FI0430"
"FI0431_600","Salutati Cecchi","43.7622762134036","11.2749317407164","FI0431"
"FI0432_600","Salutati Ripoli","43.762443649011","11.2798559906206","FI0432"
"FI0433_600","Salutati Gavinana","43.7624079691736","11.2820938549993","FI0433"
"FI0435_600","Torcicoda Tigli","43.7752299319998","11.2203654918536","FI0435"
"FI0436_600","Torcicoda Acacie","43.7758916486698","11.2175864448958","FI0436"
"FI0437_600","Torcicoda Magnolie","43.7766049410704","11.2160906544084","FI0437"
"FI0438_600","Torcicoda Platani","43.7780669149268","11.2131282942287","FI0438"
"FI0439_600","Modigliani Torcicoda","43.7785031443181","11.211291269682","FI0439"
"FI0440_600","Modigliani Ciseri","43.7792906411074","11.2068840870104","FI0440"
"FI0441_600","Canova Argin Grosso","43.7835169642367","11.1889098628475","FI0441"
"FI0442_600","Argin Grosso Canova","43.7839543367057","11.1928636860807","FI0442"
"FI0443_600","Argin Grosso S.M. A Cintoia","43.7833946031968","11.1962234261303","FI0443"
"FI0444_600","Argin Grosso Assisi","43.782679142615","11.2004178351518","FI0444"
"FI0445_600","Argin Grosso Fedi","43.7821865413198","11.203553107464","FI0445"
"FI0446_600","Argin Grosso Ciseri","43.7817770198063","11.2068109321024","FI0446"
"FI0447_600","Torcicoda Argin Grosso","43.7802648282802","11.2105159424771","FI0447"
"FI0448_600","Torcicoda Sernesi","43.7779058577369","11.2133087424558","FI0448"
"FI0449_600","Torcicoda Gerani","43.7766600850156","11.2158006847652","FI0449"
"FI0450_600","Torcicoda Ginestre","43.7755161272536","11.2183786715828","FI0450"
"FI0451_600","Torcicoda Azalee","43.7751662925537","11.2206287316167","FI0451"
"FI0453_600","Indipendenza Xxvii Aprile","43.779972345352","11.2538223860235","FI0453"
"FI0454_600","Fra' Bartolommeo Capponi","43.7828579882902","11.263838356092","FI0454"
"FI0455_600","Savonarola Giacomini","43.782828648701","11.2664531524973","FI0455"
"FI0456_600","Conti","43.7802836208954","11.2687987832758","FI0456"
"FI0457_600","Vasari","43.7820543280816","11.2709876776928","FI0457"
"FI0458_600","Campo D'Arrigo Sette Santi","43.7802521517456","11.2758123861608","FI0458"
"FI0461_600","Malta Toti","43.7759950817178","11.2817001613765","FI0461"
"FI0462_600","Malta Fanti","43.7749037063464","11.2837263618341","FI0462"
"FI0463_600","Fanti Cialdini","43.7767563869252","11.2863038183916","FI0463"
"FI0464_600","D'Annunzio Papini","43.7798630851692","11.2968263227139","FI0464"
"FI0465_600","D'Annunzio Da Maiano","43.7811918106937","11.2996997025547","FI0465"
"FI0466_600","D'Annunzio Centro Tecnico","43.7809450006058","11.3032358214478","FI0466"
"FI0467_600","D'Annunzio Ponte A Mensola","43.7815739027596","11.3084317102577","FI0467"
"FI0468_600","D'Annunzio Dei Ceci","43.7813305005876","11.3158532374479","FI0468"
"FI0469_600","D'Annunzio Buonarroti","43.7801942946054","11.3183151680371","FI0469"
"FI0470_600","D'Annunzio Buontalenti","43.7814024897613","11.320003829007","FI0470"
"FI0471_600","Settignano","43.7829906842944","11.3216000267006","FI0471"
"FI0472_600","D'Annunzio Mosca","43.7810707683183","11.319712885035","FI0472"
"FI0473_600","D'Annunzio Scuole","43.7806467721647","11.3177579296259","FI0473"
"FI0474_600","D'Annunzio Mezzaratta","43.7807726236357","11.3142149848055","FI0474"
"FI0475_600","D'Annunzio Poggio Gherardo","43.781344140462","11.3073262023918","FI0475"
"FI0476_600","D'Annunzio Del Ninfale","43.7809878194264","11.3031215870986","FI0476"
"FI0477_600","D'Annunzio Pirandello","43.7812638763551","11.2999214258356","FI0477"
"FI0478_600","D'Annunzio Fontebuoni","43.7794883295422","11.2962770131722","FI0478"
"FI0479_600","D'Annunzio Falcucci","43.7765536762346","11.293496834336","FI0479"
"FI0480_600","Fanti Piscina Costoli","43.7764995280593","11.2858668906431","FI0480"
"FI0481_600","Malta Costoli","43.7750765644115","11.2840870697867","FI0481"
"FI0482_600","Malta Puccioni","43.7763261883549","11.2809944256434","FI0482"
"FI0483_600","Fanti Stadio Ridolfi","43.7782103497338","11.2788740550832","FI0483"
"FI0485_600","Ficino","43.7809661007779","11.2684112547055","FI0485"
"FI0486_600","Savonarola Della Mirandola","43.7824316570355","11.2671760012628","FI0486"
"FI0487_600","Fra' Bartolommeo Matteotti","43.7828093291293","11.2635677830935","FI0487"
"FI0489_600","Indipendenza Nazionale","43.779266306332","11.254013312702","FI0489"
"FI0491_600","Bronzetti","43.7839054394249","11.2887621139545","FI0491"
"FI0492_600","Nicolodi","43.7846316158978","11.2855850394918","FI0492"
"FI0493_600","Baldesi","43.7845374237834","11.2826004154963","FI0493"
"FI0494_600","Marconi Mossotti","43.7839773145198","11.2795390570072","FI0494"
"FI0495_600","Piazza Sauro","43.7693685742629","11.2466185555951","FI0495"
"FI0496_600","Serragli Santa Monaca","43.76739230834","11.2454501907251","FI0496"
"FI0497_600","Serragli Campuccio","43.7653907074199","11.2442990092337","FI0497"
"FI0499_600","Calza Serragli","43.7612043544494","11.2420558573497","FI0499"
"FI0500_600","Imperiale Farinata Uberti","43.7573052714851","11.2433905388676","FI0500"
"FI0501_600","Gelsomino Magalotti","43.7522415472568","11.24421835959","FI0501"
"FI0503_600","Gelsomino Due Strade","43.7503414018838","11.2391915949395","FI0503"
"FI0504_600","Due Strade Senese","43.7498257524338","11.2356388575812","FI0504"
"FI0507_600","Gelsomino Grecchi","43.7503633115043","11.2396814645327","FI0507"
"FI0508_600","Gelsomino Poggio Imperiale","43.7520441331609","11.2441845849762","FI0508"
"FI0510_600","Imperiale Da Castiglione","43.7578807923142","11.24314671925","FI0510"
"FI0511_600","Calza Romana","43.7611034650295","11.2422593341773","FI0511"
"FI0512_600","Romana Boboli","43.7634120485401","11.2448224519294","FI0512"
"FI0513_600","Piazza San Felice","43.7649857264566","11.2478971089352","FI0513"
"FI0515_600","Marconi Dupre'","43.7832724845678","11.2758291544166","FI0515"
"FI0516_600","Marconi Carnesecchi","43.7837195597949","11.2782430345899","FI0516"
"FI0517_600","Marconi San Gervasio","43.7842066521429","11.2818064519026","FI0517"
"FI0518_600","Gasperi Antonelli","43.7834244121964","11.2842310585618","FI0518"
"FI0519_600","Cento Stelle Calatafimi","43.7826355408399","11.2876588334993","FI0519"
"FI0520_600","Lazio Liguria","43.7899166823476","11.168229228685","FI0520"
"FI0522_600","Curtatone","43.7737823543247","11.2420084776323","FI0522"
"FI0523_600","Giovanni Della Casa","43.7727122641004","11.2298298846813","FI0523"
"FI0524_600","Sanzio","43.7711270659084","11.233158656918","FI0524"
"FI0525_600","Aleardi Burchiello","43.7687025310067","11.2369726414746","FI0525"
"FI0526_600","Pratolini","43.767051625756","11.2401257540836","FI0526"
"FI0527_600","Petrarca Monti","43.7632804314225","11.2409788047893","FI0527"
"FI0528_600","Porta Romana","43.7607250947067","11.2414631985213","FI0528"
"FI0529_600","Machiavelli Michele Di Lando","43.7589773057593","11.2475959554925","FI0529"
"FI0530_600","Machiavelli Da Castiglione","43.7566842234963","11.2477274603971","FI0530"
"FI0531_600","Galileo Torricelli","43.7560697845989","11.2504550788664","FI0531"
"FI0532_600","Galileo San Leonardo","43.7548604419102","11.2513684737841","FI0532"
"FI0533_600","Galileo Giramontino","43.7573022886067","11.2574318559159","FI0533"
"FI0534_600","Galileo Passo All'Erta","43.7580958532179","11.2612379846821","FI0534"
"FI0535_600","Galileo San Miniato","43.7602726319527","11.2640700195822","FI0535"
"FI0536_600","Piazzale San Miniato","43.7623390291823","11.2652008215166","FI0536"
"FI0537_600","Michelangiolo San Miniato","43.7613020424098","11.2682300670538","FI0537"
"FI0538_600","Michelangiolo Di Gattaia","43.7585978380324","11.269068830257","FI0538"
"FI0539_600","Michelangiolo Palagi","43.757675705199","11.2710711543227","FI0539"
"FI0540_600","Michelangiolo Ferrucci","43.7629860917533","11.2722877134438","FI0540"
"FI0541_600","Cellini Fornace","43.7646715698063","11.2674381160309","FI0541"
"FI0542_600","Serristori Terrazza Marasco","43.7650562388078","11.2634771610261","FI0542"
"FI0543_600","Serristori Grazie","43.765527598752","11.2587677970181","FI0543"
"FI0544_600","Lungarno Alle Grazie","43.7668140744476","11.2599577268762","FI0544"
"FI0545_600","Zecca Vecchia Cavalleggeri","43.766476423547","11.2640510436996","FI0545"
"FI0546_600","Piazza Piave","43.7662298892163","11.26785574054","FI0546"
"FI0548_600","Mazzini Masaccio","43.7759643327858","11.2748043606531","FI0548"
"FI0549_600","Campo Marte Fs","43.7774487253555","11.2762061478193","FI0549"
"FI0550_600","Masaccio Giambologna","43.7791545841527","11.2726035725878","FI0550"
"FI0551_600","Masaccio Artisti","43.7817307787871","11.270052729243","FI0551"
"FI0552_600","Masaccio Botticelli","43.7842990313636","11.2674455093638","FI0552"
"FI0553_600","Pascoli Mafalda Di Savoia","43.7863695256518","11.2654187857461","FI0553"
"FI0554_600","Venti Settembre Orticoltura","43.7862390685388","11.2614244063696","FI0554"
"FI0555_600","Puccinotti","43.7865754600316","11.2591117145146","FI0555"
"FI0556_600","Ruffini","43.7852554413809","11.2559736559302","FI0556"
"FI0557_600","Poliziano","43.7840207936997","11.2565134130034","FI0557"
"FI0558_600","Santa Caterina D'Alessandria","43.7822827190473","11.2564002493822","FI0558"
"FI0561_600","Venti Settembre Ruffini","43.7849919212385","11.2565793394752","FI0561"
"FI0562_600","Venti Settembre Ponte Rosso","43.7862123090298","11.2613116711126","FI0562"
"FI0565_600","Della Robbia Artisti","43.7804887648864","11.2675359236396","FI0565"
"FI0566_600","Della Robbia La Farina","43.7792321865024","11.2687311698441","FI0566"
"FI0567_600","Masaccio La Farina","43.7786129501704","11.2729014692518","FI0567"
"FI0568_600","Mazzini Repetti","43.7761356583988","11.2750038299392","FI0568"
"FI0570_600","Zecca Vecchia Nazionale","43.7666251925469","11.2635860464803","FI0570"
"FI0571_600","Corso Dei Tintori","43.7675762072","11.25989015008","FI0571"
"FI0572_600","Serristori Demidoff","43.7653928980993","11.2592053126384","FI0572"
"FI0573_600","Serristori Piazza Poggi","43.7650173627037","11.2629399351108","FI0573"
"FI0574_600","Michelangiolo Bastioni","43.7631163123341","11.2718516279967","FI0574"
"FI0575_600","Michelangiolo Pietro Tacca","43.7574267310293","11.2706875252424","FI0575"
"FI0576_600","Michelangiolo Campo Assi","43.7588080582965","11.2693640400046","FI0576"
"FI0577_600","Michelangiolo Camping","43.7613733989613","11.2689439608263","FI0577"
"FI0578_600","Piazzale Il David","43.7625522620161","11.2648905344052","FI0578"
"FI0579_600","Galileo Monte Alle Croci","43.7597469885696","11.2631076453607","FI0579"
"FI0580_600","Galileo Erta Canina","43.7578657963198","11.2604426983373","FI0580"
"FI0581_600","Galileo Carraia","43.7571668449664","11.2571326757834","FI0581"
"FI0582_600","Galileo Forte Di Belvedere","43.7549539088079","11.252107943084","FI0582"
"FI0583_600","Galileo Machiavelli","43.7558263345761","11.2504411062583","FI0583"
"FI0584_600","Machiavelli Via Del Tivoli","43.7568717296178","11.2482189298627","FI0584"
"FI0585_600","Machiavelli Bobolino","43.7592200390575","11.2480261591948","FI0585"
"FI0586_600","Petrarca Porta Romana","43.761269453402","11.2413711066276","FI0586"
"FI0587_600","Petrarca Casone","43.7641020849454","11.24108931085","FI0587"
"FI0588_600","Piazza Tasso","43.7669868462642","11.2404448017641","FI0588"
"FI0589_600","Aleardi Monte Oliveto","43.7696186483454","11.2352472004367","FI0589"
"FI0590_600","Porte Nuove Marcello","43.7819176458238","11.2375354651991","FI0590"
"FI0591_600","Sant'Onofrio","43.7708429424297","11.2421481035623","FI0591"
"FI0594_600","Ripa Rocca Tedalda","43.7674564641679","11.3093218377653","FI0594"
"FI0596_600","Aretina Loretino","43.7694329716396","11.3235181396331","FI0596"
"FI0597_600","Rocca Tedalda Cappugi","43.7687890742302","11.3188729642292","FI0597"
"FI0598_600","Rocca Tedalda Spadaro","43.7687142438158","11.3172362959869","FI0598"
"FI0599_600","Rocca Tedalda Stradone","43.7680348751683","11.3112170225747","FI0599"
"FI0600_600","Rocca Tedalda Ripa","43.767869829876","11.3073561248598","FI0600"
"FI0601_600","Rocca Tedalda Aretina","43.767768787003","11.3034402445854","FI0601"
"FI0602_600","Aretina Gignoro","43.7678817149326","11.2996226523802","FI0602"
"FI0603_600","Aretina Casaccia","43.7682056743219","11.296497997052","FI0603"
"FI0604_600","Aretina Mari","43.7685974883233","11.2917825062413","FI0604"
"FI0605_600","Bellariva","43.7687002279739","11.2865251726858","FI0605"
"FI0606_600","Lanza Madonnone","43.768165929619","11.2847852582281","FI0606"
"FI0607_600","Lanza De Sanctis","43.7682481981617","11.2814753275339","FI0607"
"FI0608_600","Beato Angelico Ghirlandaio","43.7678065124627","11.2768574973013","FI0608"
"FI0609_600","Beato Angelico Amendola","43.7684089865976","11.2716948521421","FI0609"
"FI0610_600","Duca Degli Abruzzi","43.7685762627879","11.2703003645245","FI0610"
"FI0611_600","Agnolo","43.7699514275235","11.2659530418909","FI0611"
"FI0612_600","Salvemini","43.771315974363","11.2624746014277","FI0612"
"FI0613_600","Santa Maria Nuova","43.7735033235523","11.2590650117511","FI0613"
"FI0614_600","Pucci Duomo","43.7747258142439","11.2562223931773","FI0614"
"FI0616_600","Romito Baldinucci","43.785245787258","11.2468700724061","FI0616"
"FI0617_600","Bonaini Romito","43.7874180474102","11.2465180517904","FI0617"
"FI0618_600","Milanesi","43.7899728067573","11.245257517859","FI0618"
"FI0622_600","Gore","43.8054696747157","11.2419516660863","FI0622"
"FI0624_600","Pieraccini Parcheggio","43.8052210763229","11.2486446332195","FI0624"
"FI0625_600","Pieraccini Monna Tessa","43.8074280367143","11.25018831188","FI0625"
"FI0626_600","Ospedale Pediatrico Meyer","43.8100908436153","11.2503007006774","FI0626"
"FI0627_600","Pieraccini Careggi","43.8110725933793","11.2500531759156","FI0627"
"FI0628_600","Niccolo' Da Tolentino","43.8078612584636","11.2434972943889","FI0628"
"FI0629_600","Piazza Giovanni Meyer","43.8130525008707","11.2510103172118","FI0629"
"FI0630_600","Pieraccini Oblate","43.8106534453615","11.2498493850892","FI0630"
"FI0631_600","Pieraccini Cosimo Il Vecchio","43.8096059359873","11.2504643135358","FI0631"
"FI0632_600","Pieraccini Piastra","43.807333355463","11.2499671302939","FI0632"
"FI0633_600","Pieraccini Pronto Soccorso","43.8047575767483","11.248178144748","FI0633"
"FI0634_600","Corridoni Pisacane","43.7931977946079","11.2417303893468","FI0634"
"FI0636_600","Romito Richa","43.7875936615477","11.2452535533555","FI0636"
"FI0637_600","Romito Cosseria","43.7846774149277","11.2471346678954","FI0637"
"FI0639_600","Proconsolo","43.7718697587667","11.2578976812361","FI0639"
"FI0640_600","Ghibellina Bargello","43.7706228624081","11.2581209833612","FI0640"
"FI0641_600","Ghibellina Pepi","43.7700541120262","11.2625211877614","FI0641"
"FI0646_600","Arnolfo Cimabue","43.7672195165499","11.273103404278","FI0646"
"FI0647_600","Arnolfo Orcagna","43.7669706404728","11.275202915908","FI0647"
"FI0648_600","Sella De Sanctis","43.7669538595428","11.2825343095204","FI0648"
"FI0649_600","Sella Bellariva","43.7671133177919","11.2851955352846","FI0649"
"FI0650_600","Minghetti Rosadi","43.7686359105879","11.2880691547301","FI0650"
"FI0651_600","Aretina De Gasperi","43.768310025771","11.2934118755894","FI0651"
"FI0652_600","Aretina Monzani","43.7681275542908","11.2956812322161","FI0652"
"FI0653_600","Aretina Varlungo","43.7677064999777","11.3000523273559","FI0653"
"FI0654_600","Aretina Salandra","43.7674605857616","11.3026503648029","FI0654"
"FI0655_600","Aretina Bonomi","43.7671073088118","11.305880976296","FI0655"
"FI0656_600","Rocca Tedalda Menabrea","43.76806911422","11.3126393387983","FI0656"
"FI0657_600","Rocca Tedalda Villa Favard","43.7684851897734","11.3161000232332","FI0657"
"FI0659_600","Aretina Sant'Andrea","43.7691767797643","11.3237194289519","FI0659"
"FI0660_600","Verga Tozzi","43.7786217947145","11.2979580293637","FI0660"
"FI0661_600","Duse D'Annunzio","43.7788988679305","11.2948524482954","FI0661"
"FI0662_600","Duse Lungo L'Affrico","43.7794058791853","11.2915726470111","FI0662"
"FI0665_600","Pisana Ponte A Greve","43.7680746630595","11.191324987465","FI0665"
"FI0666_600","Saffi","43.7827680791908","11.2810309371339","FI0666"
"FI0667_600","Scala Porta Al Prato","43.7781977115916","11.2419741554016","FI0667"
"FI0670_600","Tartini Puccini","43.7864106749151","11.2259992057763","FI0670"
"FI0671_600","Boito Pergolesi","43.7875439875858","11.2203610864048","FI0671"
"FI0672_600","Manifattura Tabacchi","43.7859864420128","11.225591980741","FI0672"
"FI0673_600","Cascine Istituto Agrario","43.7836470125628","11.2222787136898","FI0673"
"FI0674_600","Cascine Scuola Di Agraria","43.7823605231851","11.2199164918673","FI0674"
"FI0675_600","Boito","43.7880847351232","11.2188561100274","FI0675"
"FI0676_600","Pergolesi Tartini","43.7876689721589","11.2207919374798","FI0676"
"FI0677_600","Tartini Manifattura","43.7872881096513","11.2225519323936","FI0677"
"FI0678_600","Tartini Cascine","43.7863671804351","11.2256900017521","FI0678"
"FI0679_600","Cascine Piazzale Kennedy","43.781086137994","11.2186291999211","FI0679"
"FI0681_600","Cascine Visarno","43.7833913528712","11.2222304035581","FI0681"
"FI0682_600","Cascine Paisiello","43.7857396299277","11.2255517499107","FI0682"
"FI0684_600","Sette Santi Dupre'","43.7812047278699","11.279289196012","FI0684"
"FI0685_600","San Gervasio Carnesecchi","43.7820486308112","11.2812148268811","FI0685"
"FI0686_600","San Gervasio Antonelli","43.7831663945063","11.2843020058973","FI0686"
"FI0687_600","Sirtori","43.782415360611","11.2907835914815","FI0687"
"FI0688_600","Salviatino","43.784813468108","11.2939898550721","FI0688"
"FI0689_600","Duse Arcolaio","43.7792237368954","11.2916759706918","FI0689"
"FI0690_600","Duse Verga","43.7786628994396","11.294945934971","FI0690"
"FI0691_600","Verga D'Orso","43.7785024109327","11.2984501916806","FI0691"
"FI0692_600","Verga Gignoro","43.7780997679628","11.3012321866937","FI0692"
"FI0693_600","Verga C.T. Coverciano","43.778169010329","11.3018173179241","FI0693"
"FI0695_600","Gignoro Pasquali","43.7712434208831","11.2985587531257","FI0695"
"FI0696_600","Manni D'Ancona","43.7757403721317","11.3008092722337","FI0696"
"FI0697_600","Manni Gelli","43.7769656207484","11.2978632574857","FI0697"
"FI0698_600","Manni D'Annunzio","43.7779813033335","11.2954853010219","FI0698"
"FI0699_600","Campo D'Arrigo Torretta","43.7735588890055","11.2823146030246","FI0699"
"FI0700_600","Campo D'Arrigo Puccioni","43.7761707487012","11.2797921665573","FI0700"
"FI0701_600","Indipendenza Ridolfi","43.7800650050887","11.2539175141242","FI0701"
"FI0702_600","Santo Stefano In Pane","43.7987246432361","11.2417956574211","FI0702"
"FI0703_600","Madonnina Del Grappa","43.8001466942595","11.2404441847291","FI0703"
"FI0704_600","Panche Michelazzi","43.8034126875124","11.2410185518826","FI0704"
"FI0705_600","Caruso","43.8075743951783","11.2388446630612","FI0705"
"FI0707_600","Panche Ragazzi Del '99","43.8032747300656","11.2409371880934","FI0707"
"FI0708_600","Steccuto","43.8009621523576","11.2397226045912","FI0708"
"FI0711_600","Campo D'Arrigo Rubieri","43.7745651022901","11.2812967335545","FI0711"
"FI0712_600","Manni Martini","43.7765742159128","11.2985222981106","FI0712"
"FI0713_600","Manni Gignoro","43.7756286969977","11.3007661582156","FI0713"
"FI0714_600","Gignoro Mezzetta","43.77130377198","11.298467880464","FI0714"
"FI0717_600","Ponte Alla Badia Roccettini","43.8040498816052","11.2788947003444","FI0717"
"FI0755_600","Pistoiese Sala","43.7933511896801","11.1743003239565","FI0755"
"FI0757_600","Ponte Alla Badia Salviati","43.8041855743736","11.2788625666884","FI0757"
"FI0758_600","Pistoiese Fossetto","43.7936728963817","11.1605330269176","FI0758"
"FI0761_600","Maragliano Busoni","43.7877438358236","11.2326558711256","FI0761"
"FI0764_600","Regione Toscana","43.7928768471848","11.2219823156467","FI0764"
"FI0771_600","Maragliano Fontana","43.7858835167407","11.2364357913976","FI0771"
"FI0773_600","Sorgane","43.7515361418028","11.3051926929909","FI0773"
"FI0774_600","Rodolico","43.754013539315","11.3057908918992","FI0774"
"FI0775_600","Cimitero Del Pino","43.7557202292927","11.3050956439105","FI0775"
"FI0777_600","Olanda Francia","43.7573347175593","11.2991455651866","FI0777"
"FI0778_600","Benci","43.767487434507","11.2593711514683","FI0778"
"FI0779_600","Verdi","43.770004928351","11.261390199749","FI0779"
"FI0782_600","Corsica Circondaria","43.787706874271","11.2398332258039","FI0782"
"FI0783_600","Massaio Ponte Di Mezzo","43.7909233302583","11.2381124498174","FI0783"
"FI0784_600","Ponte Di Mezzo Mariti","43.792436341571","11.2364816279105","FI0784"
"FI0785_600","Del Prete Terzolle","43.7944000395393","11.2339027503755","FI0785"
"FI0786_600","Del Prete Caciolle","43.7958279491224","11.2315555253135","FI0786"
"FI0788_600","Panciatichi Fanfani","43.804501075956","11.2288762209651","FI0788"
"FI0790_600","Panciatichi Perfetti Ricasoli","43.80443781019","11.2286578685666","FI0790"
"FI0791_600","Del Prete Maddalena","43.7956753968493","11.2315295849533","FI0791"
"FI0792_600","Del Prete Guidoni","43.794354138924","11.2337177045408","FI0792"
"FI0793_600","Ponte Di Mezzo Marignolli","43.7920315380904","11.2365371838307","FI0793"
"FI0794_600","Massaio Corsica","43.7908578554221","11.2384672704119","FI0794"
"FI0795_600","Corsica Gordigiani","43.7875689032545","11.239830556878","FI0795"
"FI0796_600","Cellini Ferrucci","43.7640043795459","11.2702050158147","FI0796"
"FI0797_600","Piazza Francia","43.7589530388573","11.2994839570306","FI0797"
"FI0798_600","Olanda Europa","43.7571703431707","11.2990367264764","FI0798"
"FI0799_600","Danimarca","43.755627102916","11.2978752082476","FI0799"
"FI0800_600","Di Ripoli Spagna","43.7548370321691","11.3025307022604","FI0800"
"FI0801_600","Croce","43.753595252946","11.3053261139144","FI0801"
"FI0802_600","Bolognese Pellegrino","43.7872553101644","11.2625192440734","FI0802"
"FI0803_600","Bolognese Fanciullacci","43.7924911095927","11.2613683013241","FI0803"
"FI0804_600","Bolognese Di Montughi","43.7944973728512","11.261217154075","FI0804"
"FI0805_600","Bolognese La Pietra","43.7983845232601","11.262926928308","FI0805"
"FI0806_600","Bolognese Villa Finaly","43.8014791153601","11.267484751603","FI0806"
"FI0807_600","Bolognese Il Cionfo","43.8039475145947","11.2702447136695","FI0807"
"FI0808_600","Bolognese La Lastra","43.8066131324654","11.2747404421362","FI0808"
"FI0809_600","Bolognese Nuova La Lastra","43.8083379502554","11.2780958536772","FI0809"
"FI0810_600","Bolognese Nuova Di Monterinaldi","43.8103531311015","11.281558873058","FI0810"
"FI0811_600","Bolognese Nuova Biondetti","43.8128535797132","11.2837118284173","FI0811"
"FI0812_600","Bolognese Anffas","43.8166416202036","11.2803168950529","FI0812"
"FI0813_600","Bolognese Km 7","43.8186396083683","11.2816631581472","FI0813"
"FI0814_600","Bolognese Viuccia","43.8202115447572","11.2829279880229","FI0814"
"FI0815_600","Bolognese Km 8","43.824069204411","11.2849696395085","FI0815"
"FI0816_600","Bolognese Cimitero","43.8259463632524","11.2863221919358","FI0816"
"FI0817_600","Bolognese Pian Di San Bartolo","43.8317177802947","11.2874349912162","FI0817"
"FI0830_600","Pian Di San Bartolo","43.8317576356562","11.2870183115489","FI0830"
"FI0841_600","Bolognese Di Basciano","43.83139035892","11.287599709198","FI0841"
"FI0842_600","Bolognese Trespiano","43.8258433789634","11.2860695387747","FI0842"
"FI0843_600","Bolognese Ss65","43.8239938833356","11.2849092502719","FI0843"
"FI0844_600","Bolognese Santa Lucia","43.8203478963553","11.2828629290449","FI0844"
"FI0845_600","Bolognese Dei Massoni","43.8184806169346","11.2814643659971","FI0845"
"FI0846_600","Bolognese Bivio","43.816317050312","11.2800235279298","FI0846"
"FI0847_600","Bolognese Vecchia Concezione","43.813710169335","11.2766573897872","FI0847"
"FI0848_600","Bolognese Vecchia Spedaluzzo","43.8112136019919","11.2743028077813","FI0848"
"FI0849_600","Bolognese Vecchia La Lastra","43.808480519989","11.2752340483554","FI0849"
"FI0850_600","La Lastra","43.8065659549936","11.2743967703","FI0850"
"FI0851_600","Bolognese Di Careggi","43.8038472749133","11.2696255584496","FI0851"
"FI0852_600","Bolognese Poggiolino","43.8018154426449","11.2676637433781","FI0852"
"FI0853_600","Bolognese San Marco Vecchio","43.7989592274185","11.2636851331234","FI0853"
"FI0854_600","Bolognese Trieste","43.793551147081","11.261260694792","FI0854"
"FI0855_600","Bolognese Villa Triste","43.792358463251","11.2612467745755","FI0855"
"FI0856_600","Bolognese Ponte Rosso","43.7867428707662","11.262344557034","FI0856"
"FI0857_600","Ponte Rosso","43.7850002507136","11.2620488937041","FI0857"
"FI0861_600","Baccio Da Montelupo 01","43.7703078379022","11.2081423936301","FI0861"
"FI0862_600","Baccio Da Montelupo 03","43.7698230577304","11.2043397603397","FI0862"
"FI0863_600","Baccio Da Montelupo 05","43.7695054828354","11.2018991295212","FI0863"
"FI0864_600","Baccio Da Montelupo 07","43.7692686290592","11.1982557045593","FI0864"
"FI0865_600","Baccio Da Montelupo 09","43.7692495883919","11.1955471291985","FI0865"
"FI0866_600","Ponte A Greve 01","43.7691370910454","11.1927320178101","FI0866"
"FI0868_600","Pisana Rialdoli","43.7653393897781","11.1839433657433","FI0868"
"FI0933_600","Rifredi Fs Giuliani","43.7994773832022","11.2389927550392","FI0933"
"FI0934_600","Giuliani Ragazzi Del 99","43.8019400051619","11.2373754944459","FI0934"
"FI0935_600","Giuliani Locchi","43.8043685833254","11.2345059689457","FI0935"
"FI0993_600","Giuliani Del Greco","43.8085477187636","11.2337371109862","FI0993"
"FI0994_600","Giuliani Scuola Minzoni","43.804324784646","11.2344436695132","FI0994"
"FI0995_600","Giuliani Corsi","43.8026569048816","11.2366284183642","FI0995"
"FI0996_600","Rifredi Fs Steccuto","43.8010116742027","11.2381146562924","FI0996"
"FI1001_600","Baracca Il Barco","43.7930539629796","11.2137871381422","FI1001"
"FI1003_600","Pratese Di Motrone","43.7983325982901","11.1992025054665","FI1003"
"FI1006_600","Pratese Michelacci","43.802201944904","11.1892363684967","FI1006"
"FI1014_600","Deposito Peretola","43.8013082613275","11.1900630100238","FI1014"
"FI1025_600","Pratese Faccioli","43.79838134974","11.1985407623172","FI1025"
"FI1027_600","Baracca Vecchi","43.7937356553087","11.2111306758137","FI1027"
"FI1028_600","Baracca Baracchini","43.792242334015","11.2159446801609","FI1028"
"FI1053_600","Il Pino","43.7297178489901","11.2482201034981","FI1053"
"FI1072_600","Giannotti Caponsacchi","43.760689560891","11.284283187804","FI1072"
"FI1073_600","Giannotti Dalla Costa","43.7581685109181","11.2867617449102","FI1073"
"FI1074_600","Giannotti Il Bandino","43.7564834879203","11.2890777739658","FI1074"
"FI1075_600","Europa Svezia","43.7568656506361","11.2947116805377","FI1075"
"FI1076_600","Europa Andorra","43.7569862058351","11.2976725990446","FI1076"
"FI1077_600","Chiantigiana San Marcellino","43.7509063491351","11.2953330508892","FI1077"
"FI1078_600","Chiantigiana Della Torre","43.7457612216933","11.2928480672844","FI1078"
"FI1079_600","Fortini Gualdrada","43.7415988001846","11.2889465504566","FI1079"
"FI1080_600","Fortini Chiantigiana","43.7404706645918","11.2913266097998","FI1080"
"FI1081_600","Chiantigiana Ferrero","43.7395668911811","11.2968771757424","FI1081"
"FI1092_600","Chiantigiana Da Feltre","43.740223746554","11.2955533662888","FI1092"
"FI1093_600","Chiantigiana Ponte A Ema","43.7414599219514","11.2913829849544","FI1093"
"FI1094_600","Chiantigiana Diacceto","43.7460437582696","11.2931258755241","FI1094"
"FI1095_600","Chiantigiana Buia","43.751485191307","11.2960988671832","FI1095"
"FI1096_600","Badia A Ripoli","43.7559012023653","11.2990191645089","FI1096"
"FI1097_600","Colombo De Sanctis","43.765813282231","11.2813586339724","FI1097"
"FI1098_600","Colombo Campofiore","43.7656007776665","11.2779804256248","FI1098"
"FI1099_600","Tempio","43.7659855598172","11.2729418719039","FI1099"
"FI1128_600","Acc. Del Cimento Campani","43.798530798533","11.2247696777812","FI1128"
"FI1129_600","Acc. Del Cimento Artom","43.7997075157706","11.2225976663472","FI1129"
"FI1131_600","Matteucci","43.8004017039729","11.2225503196894","FI1131"
"FI1132_600","Acc. Del Cimento Barsanti","43.7983355867094","11.2246225898751","FI1132"
"FI1145_600","Aretina Minghetti","43.7687986375285","11.2898333824251","FI1145"
"FI1151_600","Pistoiese Granchio","43.7942653003758","11.1890055145179","FI1151"
"FI1152_600","Pistoiese Luccio","43.7941161314286","11.1867009881615","FI1152"
"FI1154_600","Pistoiese Golubovich","43.7935141154451","11.1768977528048","FI1154"
"FI1156_600","Pistoiese Brozzi","43.7929882460636","11.1685079352344","FI1156"
"FI1179_600","Pistoiese Fosso Secco","43.7939765046367","11.1554230365648","FI1179"
"FI1181_600","Pistoiese Campania","43.7929871581353","11.1639596633802","FI1181"
"FI1183_600","Pistoiese Piagge","43.7930246413875","11.1709813050843","FI1183"
"FI1185_600","Pistoiese Umbria","43.793218274581","11.1746610481021","FI1185"
"FI1186_600","Pistoiese Veneto","43.7935500662635","11.179559499593","FI1186"
"FI1188_600","Pistoiese Pesciolino","43.793953544395","11.1857733520938","FI1188"
"FI1191_600","Pistoiese Cascine","43.7949130274103","11.1970058860124","FI1191"
"FI1194_600","San Gaggio Sant'Ilario","43.7575568094612","11.2406160145915","FI1194"
"FI1195_600","San Gaggio Mascagni","43.7559746059289","11.2400336907173","FI1195"
"FI1196_600","San Gaggio Due Strade","43.7519431075138","11.2379553524906","FI1196"
"FI1198_600","Senese Cimitero Evangelico","43.7472323736514","11.2303600909971","FI1198"
"FI1201_600","Senese Biblioteca Galluzzo","43.7389127224909","11.2243760611044","FI1201"
"FI1202_600","Volterrana Galluzzo","43.7361245083078","11.2233026858271","FI1202"
"FI1203_600","Volterrana Ema","43.7342707372552","11.2207071983945","FI1203"
"FI1204_600","Acciaioli Silvani","43.7365256807084","11.2254376534467","FI1204"
"FI1205_600","Silvani Monna Data","43.7375856050073","11.2310247251434","FI1205"
"FI1206_600","Silvani Migliorini","43.7381739090947","11.2338623282981","FI1206"
"FI1207_600","Silvani Vecchia Pozzolatico","43.7390114578964","11.2379914312519","FI1207"
"FI1208_600","La Gora","43.7326316393217","11.2172537345524","FI1208"
"FI1209_600","Volterrana Ponte Bailey","43.7341807663436","11.2207038720798","FI1209"
"FI1211_600","Cave Di Monteripaldi Mulino","43.7382814197571","11.2462873071902","FI1211"
"FI1212_600","Silvani San Felice A Ema","43.7390358932008","11.2376632639797","FI1212"
"FI1213_600","Silvani Borghetto","43.7381441578631","11.233311731846","FI1213"
"FI1214_600","Silvani Val D'Ema","43.7373443510989","11.2293160925768","FI1214"
"FI1215_600","Acciaioli Senese","43.7366456988372","11.2249735120863","FI1215"
"FI1216_600","Senese Volterrana","43.7385165481299","11.2246081940082","FI1216"
"FI1217_600","Senese Delle Bagnese","43.7416758118105","11.2248897740257","FI1217"
"FI1218_600","Senese I Rossi","43.7450934979883","11.2278496247404","FI1218"
"FI1219_600","Senese Orsini","43.7472352522846","11.230673796192","FI1219"
"FI1220_600","Due Strade Gelsomino","43.7496077010492","11.2355797026496","FI1220"
"FI1221_600","San Gaggio Scuole","43.7519907976131","11.2381833862023","FI1221"
"FI1222_600","San Gaggio Castelli","43.7550989558588","11.2399218246758","FI1222"
"FI1223_600","San Gaggio Da Castiglione","43.7576035840758","11.2407559542261","FI1223"
"FI1226_600","Senese Certosa","43.7306127134871","11.223385813011","FI1226"
"FI1243_600","Senese Ponte Bailey","43.7308790641043","11.2235788121375","FI1243"
"FI1244_600","Senese Torrente Ema","43.7341627195343","11.2248707325375","FI1244"
"FI1245_600","Acciaioli Galluzzo","43.7361467265075","11.2247051267902","FI1245"
"FI1246_600","Imperiale San Felice","43.7504845781458","11.2470225954985","FI1246"
"FI1248_600","Giramontino Torre Del Gallo","43.7574656438711","11.259871128501","FI1248"
"FI1249_600","Torre Del Gallo Giramontino","43.7563402121544","11.259870737333","FI1249"
"FI1250_600","Torre Del Gallo Volsanminiato","43.7546092838633","11.2590742026352","FI1250"
"FI1251_600","Torre Del Gallo Arcetri","43.7514196717766","11.2562325645533","FI1251"
"FI1252_600","Pian Dei Giullari Arcetri","43.7490088666974","11.2577193098044","FI1252"
"FI1253_600","Fermi","43.7503110971704","11.2494419231252","FI1253"
"FI1254_600","Imperiale San Leonardo","43.7506908702962","11.2470058924685","FI1254"
"FI1255_600","Pian Dei Giullari","43.7473663839896","11.2579136382624","FI1255"
"FI1256_600","Pian Dei Giullari Torre Del Gallo","43.7490597522738","11.2578779651457","FI1256"
"FI1257_600","Torre Del Gallo Pian Dei Giullari","43.7516159796211","11.2563221675373","FI1257"
"FI1258_600","Torre Del Gallo Unganelli","43.7543984721266","11.2590352152749","FI1258"
"FI1259_600","Torre Del Gallo Giramonte","43.7561653586323","11.2598345902819","FI1259"
"FI1260_600","Giramontino Galilei","43.7575428704689","11.2600634697456","FI1260"
"FI1265_600","Studio","43.7724079902254","11.256858714729","FI1265"
"FI1266_600","Presidio Ospedaliero Palagi","43.755999101852","11.2725487272677","FI1266"
"FI1267_600","Po Palagi Villa Margherita","43.7556911142517","11.27150094136","FI1267"
"FI1269_600","Villa Le Rose","43.8076564283252","11.253217928521","FI1269"
"FI1270_600","Villa La Meridiana","43.808771925785","11.2548620578114","FI1270"
"FI1271_600","Cosimo Il Vecchio Di Careggi","43.8104235192658","11.2567130595928","FI1271"
"FI1272_600","Dei Massoni Incontri","43.8089391902191","11.2609758296102","FI1272"
"FI1273_600","Dei Massoni S. Maria Maddalena","43.8110011716284","11.2611935253614","FI1273"
"FI1274_600","Dei Massoni Convento","43.8120502074497","11.2639140882447","FI1274"
"FI1275_600","Dei Massoni Delle Ballodole","43.8130557013721","11.2654223374573","FI1275"
"FI1276_600","Dei Massoni I Fraticini","43.8130010623231","11.2681757527214","FI1276"
"FI1277_600","Dei Massoni Concezione","43.814570353173","11.2721175975708","FI1277"
"FI1278_600","Dei Massoni Bolognese","43.8168611521268","11.2766683671099","FI1278"
"FI1279_600","Dei Massoni Bolognese Vecchia","43.8160539717842","11.279671578089","FI1279"
"FI1280_600","Di Careggi Bolognese","43.807645459874","11.2667421899768","FI1280"
"FI1281_600","Di Careggi Incontri","43.8091514926885","11.2643484668955","FI1281"
"FI1282_600","Di Careggi Dei Massoni","43.808847007717","11.2617665387435","FI1282"
"FI1283_600","Di Careggi Cosimo Il Vecchio","43.8107071134717","11.2564859019397","FI1283"
"FI1284_600","Di Careggi Meyer","43.8117123534969","11.253224397032","FI1284"
"FI1285_600","Pergolino Cto","43.8025107875066","11.2479710887422","FI1285"
"FI1286_600","Villa Ulivella","43.8033167094842","11.249566120659","FI1286"
"FI1287_600","Villa I Glicini","43.8040868309737","11.2502352568461","FI1287"
"FI1288_600","Villa Aurora","43.8048561825402","11.2516285268379","FI1288"
"FI1289_600","Villa La Selva","43.8056452277104","11.2552167930674","FI1289"
"FI1290_600","Bartolommei Incontri","43.8054188611075","11.2584716176515","FI1290"
"FI1291_600","Incontri Poggio Secco","43.8036578161002","11.2562375717142","FI1291"
"FI1292_600","Incontri Del Pergolino","43.8026741806767","11.2540716875383","FI1292"
"FI1294_600","Dalla Costa","43.7593488092375","11.2837943314755","FI1294"
"FI1295_600","Larione","43.7566632250135","11.2798646481071","FI1295"
"FI1296_600","Fortini Vinta","43.7532043005384","11.2803946819937","FI1296"
"FI1297_600","Fortini Paradiso","43.7505605575489","11.284060737216","FI1297"
"FI1298_600","Fortini I Moccoli","43.7489414364782","11.2844353892358","FI1298"
"FI1299_600","Cinque Vie Vinta","43.7470876793994","11.283261052848","FI1299"
"FI1300_600","Cinque Vie Caduti Pian D'Ema","43.7457649810512","11.2798388819113","FI1300"
"FI1301_600","Cinque Vie Colline","43.7428813540882","11.2743178953685","FI1301"
"FI1302_600","Cinque Vie Centro Terapia","43.7420222043333","11.2708888576161","FI1302"
"FI1303_600","Cinque Vie Pian Dei Giullari","43.7411787107611","11.267151165452","FI1303"
"FI1304_600","Cinque Vie San Michele","43.7394471930555","11.2604472000181","FI1304"
"FI1311_600","Cave Di Monteripaldi Arcetri","43.7395798002085","11.2493953912513","FI1311"
"FI1312_600","Cave Di Monteripaldi Silvani","43.7383242080318","11.2459427591245","FI1312"
"FI1313_600","Galluzzo Via Pietriboni","43.7364012926272","11.2268891692711","FI1313"
"FI1314_600","Cave Di Monteripaldi Fiume Ema","43.7392911667763","11.2487357975855","FI1314"
"FI1317_600","Cinque Vie Monteripaldi","43.735435645071","11.2572834777957","FI1317"
"FI1318_600","Cinque Vie Tozzoli","43.7369195055245","11.2585096042063","FI1318"
"FI1319_600","Cinque Vie Scuole","43.7385834968383","11.2596887636659","FI1319"
"FI1320_600","Cinque Vie Catinai","43.7393955651141","11.2610087279408","FI1320"
"FI1321_600","Cinque Vie A1","43.7411667052315","11.267270674539","FI1321"
"FI1322_600","Cinque Vie Torrente Ema","43.742150059114","11.2714773700313","FI1322"
"FI1323_600","Cinque Vie Pian D'Ema","43.7428401275786","11.274353590294","FI1323"
"FI1324_600","Le Cinque Vie","43.745719254527","11.2798744037925","FI1324"
"FI1328_600","Fortini Sant'Anna","43.753247859387","11.2804677573573","FI1328"
"FI1329_600","Fortini Larione","43.7558736444569","11.278825407902","FI1329"
"FI1332_600","Fortini Villa Rusciano","43.7591653574394","11.2778758805725","FI1332"
"FI1333_600","Foscolo Pindemonte","43.7614470783558","11.2378217507398","FI1333"
"FI1334_600","Marignolle Sant'Ilario","43.7587032048289","11.2328779178717","FI1334"
"FI1335_600","Marignolle Piana","43.7592173277838","11.229142432023","FI1335"
"FI1336_600","Marignolle I Merli","43.757040766284","11.2264856265497","FI1336"
"FI1337_600","Marignolle Del Ferrone","43.756092569355","11.2231633942682","FI1337"
"FI1339_600","Marignolle Della Pescaia","43.752229372747","11.2174076784537","FI1339"
"FI1340_600","Marignolle","43.7499393960905","11.2166384242842","FI1340"
"FI1341_600","Marignolle San Quirichino","43.7522089091817","11.217534235415","FI1341"
"FI1342_600","Marignolle Villa Medicea","43.7540862526195","11.2191515771708","FI1342"
"FI1343_600","Marignolle Morelli","43.756050844697","11.2232255092779","FI1343"
"FI1344_600","Marignolle Chiesina","43.7570117793647","11.2265870307394","FI1344"
"FI1345_600","Marignolle Delle Campora","43.7591853235739","11.2291676404493","FI1345"
"FI1346_600","Marignolle Foscolo","43.7586084029583","11.2328914710748","FI1346"
"FI1347_600","Foscolo Porta Romana","43.7615265310173","11.2379023554978","FI1347"
"FI1349_600","Oblate Delle Gore","43.8122825982089","11.2480440369964","FI1349"
"FI1352_600","Gore Terzolle","43.8137558789943","11.2479958831597","FI1352"
"FI1353_600","Gore Cappelle Del Commiato","43.8149097991379","11.2488218347893","FI1353"
"FI1354_600","Delle Masse Viuzzo","43.8174600278195","11.2493932028126","FI1354"
"FI1355_600","Delle Masse Nuova Del Mulino","43.8191385752509","11.2510230144367","FI1355"
"FI1356_600","Delle Masse Via Di Serpiolle","43.8203199627777","11.2534362680553","FI1356"
"FI1357_600","Delle Masse Circolo","43.8223233635103","11.2552541567086","FI1357"
"FI1358_600","Delle Masse Terzolle","43.8265044904734","11.2600860934984","FI1358"
"FI1373_600","Della Docciola Bolognese","43.833777855913","11.2863958820503","FI1373"
"FI1389_600","Delle Masse Sesto","43.8303464102373","11.2624884474786","FI1389"
"FI1390_600","Delle Masse Monte","43.8265560007552","11.2599854394686","FI1390"
"FI1391_600","Serpiolle","43.8233788837107","11.2564133699975","FI1391"
"FI1392_600","Delle Masse San Lorenzo","43.8219763326234","11.2548182887457","FI1392"
"FI1393_600","Delle Masse Serpiolle","43.8202234190037","11.2533098408109","FI1393"
"FI1394_600","Delle Masse Collina","43.8191481535506","11.2509938421825","FI1394"
"FI1395_600","Delle Masse Delle Gore","43.8174976664552","11.2493106849196","FI1395"
"FI1396_600","Gore Loggia Dei Bianchi","43.8149200189018","11.2487600496588","FI1396"
"FI1397_600","Gore Oblate","43.813697797523","11.2478453715276","FI1397"
"FI1398_600","Oblate Pieraccini","43.8122154027621","11.2482559880117","FI1398"
"FI1399_600","Piazza Pier Della Francesca","43.7705500693565","11.2121427655291","FI1399"
"FI1401_600","Di Ugnano","43.7720158422396","11.18321889177","FI1401"
"FI1402_600","Di Ugnano 05","43.7748698540066","11.178980003071","FI1402"
"FI1403_600","Di Ugnano 07","43.7762780827025","11.1759526773752","FI1403"
"FI1404_600","Di Ugnano 09","43.777326746513","11.17336417894","FI1404"
"FI1405_600","Castelnuovo","43.7786720377218","11.1757677076069","FI1405"
"FI1406_600","Chiuso 01","43.7805242587589","11.1775528915077","FI1406"
"FI1407_600","Mantignano","43.7822314310497","11.1789166118356","FI1407"
"FI1408_600","Di Mantignano","43.783564551653","11.1760508556077","FI1408"
"FI1409_600","Di Mantignano 03","43.7825488328493","11.1738346608233","FI1409"
"FI1410_600","Di Ugnano 11","43.7810068601481","11.1719533365887","FI1410"
"FI1411_600","Di Ugnano 13","43.7826035462384","11.168594352798","FI1411"
"FI1413_600","Santo Stefano A Ugnano","43.7852737608932","11.1642786647676","FI1413"
"FI1414_600","Di Ugnano 14","43.7835583120654","11.1669057640798","FI1414"
"FI1417_600","Di Mantignano 04","43.782626854566","11.1739928278331","FI1417"
"FI1418_600","Di Mantignano 02","43.7835418175354","11.1758263395847","FI1418"
"FI1419_600","Musciana","43.782823713902","11.1776022168495","FI1419"
"FI1420_600","Il Chiuso","43.7793945504229","11.1761232199373","FI1420"
"FI1421_600","Chiuso","43.7785751465797","11.1761276602993","FI1421"
"FI1422_600","Di Ugnano 08","43.7762383044017","11.1759139569827","FI1422"
"FI1423_600","Di Ugnano 06","43.7748254596913","11.1789473266697","FI1423"
"FI1426_600","Ponte A Greve 02","43.769072053399","11.1923677838073","FI1426"
"FI1427_600","Baccio Da Montelupo 10","43.7691165583801","11.1959103300486","FI1427"
"FI1428_600","Baccio Da Montelupo 08","43.769145068614","11.1984071018609","FI1428"
"FI1429_600","Baccio Da Montelupo 06","43.7694301065713","11.2023063662923","FI1429"
"FI1430_600","Baccio Da Montelupo 04","43.7699115922089","11.2058168627897","FI1430"
"FI1431_600","Baccio Da Montelupo 02","43.7702187654738","11.2083254825989","FI1431"
"FI1435_600","Tartini Passerella","43.7873110230771","11.222762505046","FI1435"
"FI1441_600","Ponte Alle Mosse Doni","43.7840086243537","11.2319015692465","FI1441"
"FI1455_600","Stazione Scalette","43.7754508146956","11.2480139157554","FI1455"
"FI1456_600","Villaggio Forlanini","43.7910927562745","11.2304304290376","FI1456"
"FI1457_600","Forlanini Guidoni","43.7934722475419","11.2323129544037","FI1457"
"FI1529_600","Ariosto Aleardi","43.7690112080259","11.2393696057434","FI1529"
"FI1531_600","Del Garbo T1 Morgagni","43.7982305051027","11.2435764597995","FI1531"
"FI1596_600","Olmi Shelley","43.7799800905895","11.2249512194595","FI1596"
"FI1597_600","Ippodromo Del Visarno","43.7817395518308","11.2208239794107","FI1597"
"FI1605_600","Olmi Galoppo","43.7814471570911","11.2213452675222","FI1605"
"FI1623_600","Forlanini Polo Scienze Sociali","43.7933469796879","11.2320426130943","FI1623"
"FI1624_600","Forlanini Rastrelli","43.7914702075088","11.230636623921","FI1624"
"FI1625_600","Calasso Gignoro","43.7700906134213","11.298576703157","FI1625"
"FI1626_600","Rifredi Fs Fantoni","43.7998978969622","11.2370599615599","FI1626"
"FI1637_600","Olmi Fonte Di Narciso","43.7797272615824","11.225219881507","FI1637"
"FI1639_600","Panciatichi Dalmazia","43.7974146821264","11.2394983568832","FI1639"
"FI1640_600","Nave Di Brozzi","43.7911679310028","11.1656914305883","FI1640"
"FI1642_600","Buonsignori","43.7891042104381","11.2335658336021","FI1642"
"FI1643_600","Campo D'Arrigo De Amicis","43.7725153772794","11.2831710479328","FI1643"
"FI1645_600","Primo Maggio Scuole","43.7951356898572","11.1695827465283","FI1645"
"FI1659_600","Primo Maggio Brozzi","43.7944455000652","11.1691745494215","FI1659"
"FI1661_600","Sette Santi Stadio","43.7811893897192","11.2789297905321","FI1661"
"FI1664_600","Ricasoli Fanfani","43.8064412553562","11.2261092356227","FI1664"
"FI1665_600","Ricasoli Petrocchi","43.8078714901161","11.2238655083849","FI1665"
"FI1666_600","Campania Basilicata","43.7924915725783","11.1613694382617","FI1666"
"FI1667_600","Campania Calabria","43.7913584485274","11.161343647632","FI1667"
"FI1668_600","Lazio Nave Di Brozzi","43.7897438484947","11.1657593248246","FI1668"
"FI1669_600","Lazio Marche","43.7899172403948","11.1685508389969","FI1669"
"FI1670_600","Piagge Fs","43.7901071498159","11.1723339651686","FI1670"
"FI1671_600","Sala","43.7915296031779","11.1734770822344","FI1671"
"FI1683_600","Famiglia Benini Ricasoli","43.8078845633045","11.2222684411713","FI1683"
"FI1711_600","Ricasoli Famiglia Benini","43.8075492770789","11.2241248072944","FI1711"
"FI1712_600","Ricasoli Nuovo Pignone","43.8061974446604","11.2262615437801","FI1712"
"FI1717_600","Fabiani Allende","43.8018712892515","11.2226778577896","FI1717"
"FI1718_600","Famiglia Benini Petrocchi","43.8080334453588","11.2225613373128","FI1718"
"FI1719_600","Famiglia Benini Olmatello","43.8055460037245","11.2189059156743","FI1719"
"FI1720_600","Trento Orti Di Parnaso","43.7889747855782","11.2604821875717","FI1720"
"FI1760_600","Maragliano Bellini","43.786115342581","11.2360501546194","FI1760"
"FI1769_600","Redi San Donato","43.7885399716671","11.2288214756767","FI1769"
"FI1814_600","Nenni Centro Commerciale","43.7640922829794","11.1966598444137","FI1814"
"FI1815_600","Nenni Stradone","43.7641508657315","11.1988006757","FI1815"
"FI1816_600","Codignola T1 Nenni","43.7644139733246","11.1958985399737","FI1816"
"FI1818_600","Foggini Baccio Da Montelupo","43.7711531116101","11.2114551803148","FI1818"
"FI1824_600","Fratelli Rosselli","43.7792671653583","11.2441374914272","FI1824"
"FI1834_600","Stazione Piazza Adua","43.7773558417935","11.2491996976208","FI1834"
"FI1835_600","Baracca Carissimi","43.7907995681812","11.2211580386664","FI1835"
"FI1836_600","Baracca Quartiere 5","43.7962361539875","11.2040368841184","FI1836"
"FI1840_600","Piazza Piattellina","43.7686205141099","11.242992195102","FI1840"
"FI1847_600","Baracca Medaglie D'Oro","43.7915763427912","11.2182504855749","FI1847"
"FI1848_600","Puccini Manifattura","43.7864860711648","11.2272121689608","FI1848"
"FI1852_600","Bardi","43.7668974527841","11.2546400845878","FI1852"
"FI1871_600","Carra Scarlatti","43.781743687853","11.2383724488667","FI1871"
"FI1873_600","Piazza Di San Lorenzo","43.7752075922202","11.2548315241944","FI1873"
"FI1877_600","Ponte All'Asse","43.7846975159778","11.2404043179096","FI1877"
"FI1880_600","Oriuolo Duomo","43.7725258771352","11.2586383667728","FI1880"
"FI1888_600","Palazzuolo","43.7740508436027","11.2458442833431","FI1888"
"FI1889_600","Solferino","43.7754105304579","11.2400449643241","FI1889"
"FI1897_600","Piazza Della Repubblica","43.7713651304395","11.2535879329728","FI1897"
"FI1899_600","Etruria","43.772292489758","11.1904027487012","FI1899"
"FI1901_600","Maddalena","43.7952461221153","11.2301228448387","FI1901"
"FI1902_600","Guidoni Maddalena","43.7952138569079","11.2293449756963","FI1902"
"FI1903_600","Guidoni Barsanti","43.7965668386978","11.2262178915561","FI1903"
"FI1910_600","Stradone T1 Nenni","43.7626889563537","11.1977357589612","FI1910"
"FI1914_600","Gubbio","43.7827203133246","11.1985132773926","FI1914"
"FI1915_600","Poderaccio","43.7830754621464","11.1884571796368","FI1915"
"FI1917_600","Mezzetta Rajna","43.7713923405446","11.2969740961679","FI1917"
"FI1925_600","Stradone Parcheggio","43.7629030080454","11.1978414296465","FI1925"
"FI1926_600","Faentina Salviati","43.7993460327686","11.2752585781951","FI1926"
"FI1932_600","Piombino","43.7722511601883","11.1967752288416","FI1932"
"FI1940_600","Museo Gino Bartali","43.7403894211444","11.2935805343652","FI1940"
"FI1941_600","Chiantigiana Circolo","43.7404478850247","11.2933592378647","FI1941"
"FI1942_600","Chiantigiana Scuole","43.7528674196024","11.297209067108","FI1942"
"FI1943_600","Chiantigiana Impianti Sport","43.752677867326","11.2972328648734","FI1943"
"FI1995_600","Pistoiese San Martino","43.7932693164479","11.1630664876411","FI1995"
"FI1999_600","Baracca Paganini","43.7893688124805","11.2238936664511","FI1999"
"FI2001_600","Silvani Campi Lunghi","43.7391792800192","11.2409128251868","FI2001"
"FI2002_600","Silvani Poggiobello","43.7392443230885","11.2410394329686","FI2002"
"FI2005_600","Certosa Di Firenze","43.7322633764142","11.2241562086167","FI2005"
"FI2007_600","San Giusto Della Calza","43.761039662498","11.2417943329836","FI2007"
"FI2008_600","Villa Cancelli","43.8070498884736","11.2611314155831","FI2008"
"FI2009_600","Dei Massoni Di Careggi","43.8102928502502","11.2616575362342","FI2009"
"FI2010_600","Morelli I Visibelli","43.7569300997134","11.2199119713724","FI2010"
"FI2011_600","Morelli Marignolle","43.754394744822","11.21902945436","FI2011"
"FI2012_600","Tabernacolo","43.7841506699546","11.1671858344535","FI2012"
"FI2013_600","Piovano Arlotto","43.7822232907757","11.1679867644337","FI2013"
"FI2014_600","Perlone Zipoli","43.7807231513635","11.1678051579821","FI2014"
"FI2015_600","Baldone","43.7799188527528","11.1694944250489","FI2015"
"FI2016_600","Stenterello","43.7803786242327","11.1719603453266","FI2016"
"FI2017_600","Querce","43.7774098659276","11.1812854147458","FI2017"
"FI2018_600","Ponticino","43.7813032571651","11.1801720443532","FI2018"
"FI2019_600","Bassi","43.7770031574079","11.1999128535842","FI2019"
"FI2020_600","Livorno","43.7739761733932","11.1982854522332","FI2020"
"FI2021_600","Grosseto","43.7699439774093","11.1954748857782","FI2021"
"FI2022_600","Baccio Da Montelupo","43.7704335329714","11.2100231269715","FI2022"
"FI2023_600","Del Prete Regina Della Pace","43.7963854514664","11.2302089288118","FI2023"
"FI2024_600","Famiglia Benini Allende","43.805413188865","11.218869544632","FI2024"
"FI2025_600","Fabiani Mercafir","43.8015186239374","11.2227305866211","FI2025"
"FI2079_600","Di Montebeni Podere La Fonte","43.7942843827969","11.3298368508301","FI2079"
"FI2080_600","Di Montebeni San Giuseppe","43.791015322991","11.3327439620126","FI2080"
"FI2100_600","Di Montebeni Tre Pini","43.7910743378679","11.3327198474547","FI2100"
"FI2114_600","Cento Stelle De Amicis","43.7815849670898","11.290887010086","FI2114"
"FI2121_600","La Federiga","43.7707895852959","11.2122489595258","FI2121"
"FI2123_600","Pisana Di Ugnano","43.7667574197265","11.1875916696071","FI2123"
"FI2130_600","Torre Degli Agli Versilia","43.7943474178778","11.2195120863035","FI2130"
"FI2159_600","Rifredi Fs Vasco De Gama","43.799977989894","11.2357282084033","FI2159"
"FI2160_600","Firenze Nova","43.7992623524741","11.2354796256543","FI2160"
"FI2163_600","Officine Fs","43.7989695749105","11.1691734353657","FI2163"
"FI2168_600","Nuovo Palazzo Di Giustizia","43.7964434905831","11.221685704761","FI2168"
"FI2201_600","Francavilla","43.7741133356204","11.2240766007268","FI2201"
"FI2211_600","Baracchini","43.7944718702452","11.2165802178493","FI2211"
"FI2224_600","Galleria Degli Uffizi","43.7685895793171","11.2566777931974","FI2224"
"FI2225_600","Diaz","43.7669697074798","11.258461799033","FI2225"
"FI2226_600","Torrigiani Chiesa Luterana","43.7657322658217","11.2577059197787","FI2226"
"FI2230_600","Cappelle Medicee","43.7751068771267","11.2528629557177","FI2230"
"FI2254_600","Parco Dell'Argin Grosso","43.7835243472218","11.1958190352314","FI2254"
"FI2256_600","Allori","43.7951135167375","11.210938293309","FI2256"
"FI2257_600","Barsanti Guidoni","43.7972102057796","11.2257481402722","FI2257"
"FI2258_600","Barsanti Del Prete","43.7971243916617","11.2260448912202","FI2258"
"FI2259_600","Borgo San Iacopo","43.7676865460552","11.2523821087456","FI2259"
"FI2272_600","Olivuzzo","43.7685802254407","11.220049796682","FI2272"
"FI2283_600","Pistoiese Baracca","43.7957232107503","11.20332356914","FI2283"
"FI2287_600","Nenni Arcipressi","43.7681926844339","11.2099700867409","FI2287"
"FI2304_600","Delle Bagnese Ponte All'Asse","43.7433389672618","11.2138954445125","FI2304"
"FI2308_600","Pistoiese Bivio","43.7957602938939","11.2028012646761","FI2308"
"FI2311_600","Piazza Degli Ottaviani","43.7726874501844","11.2493086173705","FI2311"
"FI2312_600","Edison Righi","43.7869040903342","11.2840140943559","FI2312"
"FI2313_600","Cavatori Cinque Vie","43.73817463127","11.2590198284433","FI2313"
"FI2314_600","Cave Monteripaldi Cascine","43.7359036383805","11.2561769210847","FI2314"
"FI2323_600","Benedetto Marcello","43.7825308003827","11.2394395757629","FI2323"
"FI2324_600","Calasso Centro Commerciale","43.7699251968869","11.2986413579997","FI2324"
"FI2325_600","Vitelli Comparetti","43.7699717166977","11.300785023241","FI2325"
"FI2400_600","Il Prato Barbetti","43.7749882580271","11.2424179924175","FI2400"
"FI2403_600","Torre Degli Agli Guidoni","43.7966958568233","11.2221347705197","FI2403"
"FI2404_600","Guidoni Palazzo Di Giustizia","43.7954882355608","11.2277874803281","FI2404"
"FI2408_600","Piazza Bacci","43.7404652423343","11.2980959322253","FI2408"
"FI2411_600","Ferrero","43.7399672788375","11.297114465152","FI2411"
"FI2413_600","Neri T1 Leopoldo","43.7908619252546","11.246286674402","FI2413"
"FI3003_600","Vigna Nuova","43.7711080367608","11.2490443875132","FI3003"
"FI3004_600","Vecchietti","43.7725677806901","11.2528841006972","FI3004"
"FI3005_600","Frescobaldi","43.7684337028731","11.2499737778578","FI3005"
"FI3006_600","Guicciardini Carraia","43.7695450853134","11.247257254565","FI3006"
"FI3007_600","Santa Maria Maggiore","43.7730421044584","11.2527854055309","FI3007"
"FI3010_600","Sant'Agostino","43.7673776927719","11.2459880334466","FI3010"
"FI3011_600","Santo Spirito","43.7655108936347","11.2475176789945","FI3011"
"FI3012_600","Pitti","43.7661235992345","11.2502381133658","FI3012"
"FI3014_600","Bisarno","43.7614653907748","11.3025942137287","FI3014"
"FI3016_600","Piazza San Iacopino","43.7841625795681","11.2399058758249","FI3016"
"FI3018_600","Delle Masse Dante Da Castiglione","43.8302963131035","11.2625176464849","FI3018"
"FI3020_600","Di Scandicci Don Gnocchi","43.7608193046242","11.2057512662082","FI3020"
"FI3021_600","Ospedale Don Gnocchi","43.7604255225217","11.2053951744301","FI3021"
"FI3022_600","Stradone Ronco Lungo","43.7614761186937","11.1997038170726","FI3022"
"FI3024_600","Sorgane Piazza Rodolico","43.7541276836466","11.3063806226734","FI3024"
"FI3026_600","Don Giovanni Verita'","43.7822135867122","11.2920900341308","FI3026"
"FI3128_600","P. Le Vigne","43.7363598441127","11.2454557375873","FI3128"
"FI3129_600","P. Le Vigne","43.7363854969723","11.2456046388069","FI3129"
"FI3144_600","P. San Valentino","43.7336874999653","11.2488750395471","FI3144"
"FI3145_600","Mulino Nuovo","43.7380422281349","11.2446732329238","FI3145"
"FI3158_600","Mulino Nuovo","43.7383032322032","11.2443391370786","FI3158"
"FI3159_600","P. San Valentino","43.7338213602766","11.2486749232627","FI3159"
"FI3641_600","Ponte A Iozzi","43.7347381900214","11.2558852473799","FI3641"
"FI4004_600","Pratese Magrini","43.798802950271","11.1955791385317","FI4004"
"FI4005_600","Pratese Palagio Degli Spini","43.7997559558147","11.1933066158542","FI4005"
"FI4007_600","Pratese Ponte A Giogoli","43.8034317586942","11.1863953492184","FI4007"
"FI4021_600","Pratese S. Piero A Quaracchi","43.8034525846642","11.1859892912939","FI4021"
"FI4022_600","Pratese Sede At","43.801391174233","11.1901996731968","FI4022"
"FI4023_600","Maragliano San Iacopino","43.784326806374","11.2397955037156","FI4023"
"FI4024_600","Pratese Primo Settembre","43.7987281965039","11.1957209657465","FI4024"
"FI4026_600","Baracca Pistoiese","43.7963189135867","11.2034805810435","FI4026"
"FI4029_600","Baracca Miccinesi","43.7909877740291","11.2202763523681","FI4029"
"FI4030_600","Baracca Leoncavallo","43.7892492873496","11.2237898050244","FI4030"
"FI4150_600","Pistoiese San Biagio","43.7944818086097","11.192269961727","FI4150"
"FI4153_600","Pistoiese Osteria","43.7937845703845","11.1811087129933","FI4153"
"FI4180_600","Pistoiese Bargiacchi","43.7937905800101","11.1590705981429","FI4180"
"FI4182_600","Pistoiese Nave Di Brozzi","43.7927796112607","11.1670525726223","FI4182"
"FI4187_600","Pistoiese Di Cocco","43.7937211780447","11.1821510343204","FI4187"
"FI4189_600","Pistoiese Resistenza","43.794125926714","11.1887611573762","FI4189"
"FI4190_600","Pistoiese Sardegna","43.7944000573053","11.1927765822951","FI4190"
"FI4855_600","Baracca Pietri","43.7951148733988","11.2073190352642","FI4855"
"FI5001_600","Firenze Autostazione","43.7758209554761","11.2464342758946","FI5001"
"FI5099_600","Mezzetta Nencioni","43.7724710609282","11.2943704449793","FI5099"
"FI5126_600","Orsanmichele","43.770912774364","11.2546110670514","FI5126"
"FI5127_600","Canto Alla Quarconia","43.7709471123442","11.2567478421067","FI5127"
"FI5129_600","Piazza Beccaria","43.7707498981144","11.2703360339817","FI5129"
"FI5132_600","Condotta","43.7702460693355","11.2555458639207","FI5132"
"FI5141_600","Piazza D'Ognissanti","43.7720895798752","11.2448752430293","FI5141"
"FI5174_600","Brozzi Golubovich","43.7940958349672","11.1763229233417","FI5174"
"FI5305_600","Pepi","43.7703730360722","11.2629474494929","FI5305"
"FI5306_600","Magliabechi","43.7680779801995","11.2616049326242","FI5306"
"FI5307_600","Senese Le Romite","43.7410315601894","11.2244529911531","FI5307"
"FI5308_600","Mozzi","43.76510535444","11.2582658346253","FI5308"
"FI5334_600","Scuole Mezzetta","43.7736773249928","11.2907915370043","FI5334"
"FI5350_600","Roma Duomo","43.7726050694264","11.254401324077","FI5350"
"FI5604_600","Borgo Ognissanti","43.7734227015531","11.2443175446964","FI5604"
"FI5605_600","Santa Lucia","43.7747546114638","11.2435142509104","FI5605"
"FI5751_600","Leopolda T1 Porta Al Prato","43.7773407226705","11.2390190847707","FI5751"
"FI6023_600","Pratese Ferrarin","43.7995357938524","11.1932845739126","FI6023"
"FI7011_600","Foggini T1 Federiga","43.7723714992422","11.2122347221129","FI7011"
"FI7012_600","La Casella","43.7721938526922","11.1906165830997","FI7012"
"FI7026_600","Cavallaccio Gentileschi","43.7743214628665","11.1911757664902","FI7026"
"FI7028_600","Parterre","43.7863846574305","11.264201429592","FI7028"
"FI7086_600","Ponte Nuovo","43.7819102647998","11.180177212115","FI7086"
"FI7087_600","Scuola Pirandello","43.7810253723513","11.1948862141354","FI7087"
"FI7088_600","Righi Ojetti","43.7851971200707","11.2930429498997","FI7088"
"FI7094_600","Righi Salviatino","43.7853033338737","11.2931340052476","FI7094"
"FI7140_600","Il Prato","43.7752922230744","11.2420690158664","FI7140"
"FI7155_600","Rotonda Barbetti","43.7747386084987","11.242751911474","FI7155"
"FI7157_600","Rucellai","43.7757072064113","11.2427151291202","FI7157"
"FI7201_600","Nuova Scuola Carabinieri","43.8056830025738","11.2164867766052","FI7201"
"FI7202_600","Malborghetto","43.769740997643","11.2655998820169","FI7202"
"FI7203_600","Piazza Annigoni","43.7708935920921","11.2676344580482","FI7203"
"FI7210_600","Comando Carabinieri Castello","43.8073289155195","11.2188942449023","FI7210"
"FI7211_600","Xi Agosto Scuola Carabinieri","43.8054819546579","11.2164315886144","FI7211"
"FI7217_600","Leopolda Porta Al Prato","43.7780634316024","11.2384913756916","FI7217"
"FI7218_600","Morgagni Cocchi","43.7969965533434","11.2415745482908","FI7218"
"FI7219_600","Morgagni Dalmazia","43.797428903569","11.241814312104","FI7219"
"FI7647_600","Maragliano Redi","43.7886568905492","11.2305812853418","FI7647"
"FI7801_600","Gori Geminiani","43.7967396589519","11.2056539981359","FI7801"
"FI7848_600","Santoni T2 Guidoni","43.799271742098","11.2078441627458","FI7848"
"FI7849_600","Geminiani Poste","43.7982438404236","11.2074019776269","FI7849"
"FI8802_600","Aretina Dalla Chiesa","43.7672763784533","11.3184278116208","FI8802"
"FI8803_600","Dalla Chiesa Orlando","43.7650463097016","11.3095668498178","FI8803"
"FI8804_600","Orlando Aretina","43.7660054934143","11.3089910396273","FI8804"
"FI8805_600","Orlando Dalla Chiesa","43.7664309589876","11.3089569881546","FI8805"
"FI8806_600","Dalla Chiesa Arno","43.7648095360046","11.31070616194","FI8806"
"FI8807_600","Aretina Cappugi","43.767255868467","11.3184634246632","FI8807"
"FI8808_600","Fortezza T1 Strozzi","43.7831823222342","11.2524195463455","FI8808"
"FI8809_600","Beslan T1 Fortezza","43.7802402664179","11.2496103143561","FI8809"
"FI8810_600","Santa Maria Soprarno","43.7667546679928","11.2552733658835","FI8810"
"FI8811_600","Cesalpino","43.7980402803023","11.2414733307353","FI8811"
"FI8812_600","Alderotti Grocco","43.7986828626115","11.2457562834027","FI8812"
"FI8813_600","C.T.O. T1 Careggi","43.8029927723475","11.2475982575322","FI8813"
"FI8814_600","Circondaria A.V.","43.7895642141586","11.2408471852484","FI8814"
"FI8815_600","Romito Tanucci","43.7899326462593","11.2440939415246","FI8815"
"FI8816_600","Fabbroni Pagnini","43.7903961778279","11.2509657076141","FI8816"
"FI8817_600","Lami T1 Statuto Fs","43.7877297901083","11.2504421600126","FI8817"
"FI8818_600","Cironi","43.7912861154752","11.2427663395898","FI8818"
"FI8819_600","Circondaria Corsica","43.7896504458271","11.2408115693862","FI8819"
"FI8820_600","Panciatichi Rifredi Fs","43.7992363123837","11.2352446614543","FI8820"
"FI8821_600","Palagi T1 Careggi","43.8027580068339","11.2474060999275","FI8821"
"FI8822_600","Alderotti Del Garbo","43.7985516338487","11.2455618027563","FI8822"
"FI8824_600","Pagnini Fabbroni","43.7899817047125","11.2513061353977","FI8824"
"FI8825_600","Bonaini T1 Statuto Fs","43.7890023798355","11.24813407601","FI8825"
"FI8826_600","T2 Guidoni","43.7997373786759","11.2095743828785","FI8826"
"FI8827_600","Spadolini T1 Strozzi","43.7838683608958","11.2504460533163","FI8827"
"FI8844_600","Fanfani Tre Pietre","43.8065241151444","11.2293210005376","FI8844"
"FI8845_600","Redi T2 Ponte All'Asse","43.7855450819272","11.2412288929105","FI8845"
"FI8851_600","Ponte Del Pecora","43.7987544140493","11.1807859359179","FI8851"
"FI8852_600","Padre Balducci","43.7979527733519","11.1755034541838","FI8852"
"FI8853_600","Cimitero Brozzi","43.7965487321583","11.1636485207869","FI8853"
"FI8854_600","Brozzi San Rocco","43.7939046841706","11.1639177073515","FI8854"
"FI8855_600","San Bonaventura","43.7962412162689","11.1751252154917","FI8855"
"FI8856_600","San Bonaventura Agraria","43.7956561604206","11.1779862092427","FI8856"
"FI8857_600","Brozzi Di Cocco","43.7957145349314","11.1834705875048","FI8857"
"FI8858_600","Petriolo","43.7951496547429","11.1929368548097","FI8858"
"FI8859_600","Peretola Garibaldi","43.7968479032325","11.1963537243979","FI8859"
"FI8860_600","Brozzi Sala","43.7939659434595","11.1728345702884","FI8860"
"FI8861_600","Galliano","43.783162845772","11.2372380574225","FI8861"
"FI8862_600","Palazzo Bruciato","43.7909447555786","11.2446950899479","FI8862"
"FI8863_600","Galluzzi T1 Leopoldo","43.7916708114128","11.2458953584048","FI8863"
"FI8864_600","Polo Scienze Ragghianti","43.7905652225585","11.227569683645","FI8864"
"FI8868_600","Pier Capponi Liberta'","43.7834100065107","11.2637803590891","FI8868"
"FI8869_600","Pier Capponi Valori","43.7819668401638","11.2651723942139","FI8869"
"FI8870_600","Liberta'","43.7843613619622","11.2608392150747","FI8870"
"FI8873_600","Battisti San Marco","43.7776009053167","11.2593700004922","FI8873"
"FI8874_600","Cavour San Marco","43.7776909569439","11.2580758209484","FI8874"
"FI8876_600","L. Il Magnifico Strozzi","43.7828180591772","11.2534543428188","FI8876"
"FI8877_600","L. Il Magnifico Liberta'","43.7846847881665","11.2607016591165","FI8877"
"FI8878_600","Martiri Foibe T1 Strozzi","43.7835829731289","11.252299679717","FI8878"
"FSL001_600","Aretina Campati","43.7699093381314","11.3409773317104","FSL001"
"FSL010_600","Fiesole Piazza Mino","43.8069171881055","11.2923841736087","FSL010"
"FSL016_600","Bolognese Dei Cipressini","43.8341180337673","11.2878423267406","FSL016"
"FSL018_600","Pian Di Mugnone Polveriera","43.8166744785967","11.2929779437902","FSL018"
"FSL019_600","Pian Di Mugnone Circolo","43.8167131768616","11.2928442042925","FSL019"
"FSL020_600","Caldine Il Bersaglio","43.825663145763","11.3008755314025","FSL020"
"FSL021_600","Caldine Parco Fluviale","43.8255890537799","11.3007545423632","FSL021"
"FSL022_600","Caldine Faentina","43.8291832070829","11.3058004469825","FSL022"
"FSL023_600","Caldine Zona Industriale","43.8292013392741","11.3060172333235","FSL023"
"FSL024_600","Caldine Sant'Andrea","43.8316255122185","11.3083570931912","FSL024"
"FSL025_600","Caldine Stazione","43.8319954554824","11.3089855132263","FSL025"
"FSL026_600","Caldine S.R.302","43.835855360606","11.314450091049","FSL026"
"FSL027_600","Ghirlandaio Matteotti","43.807168650624","11.2971456083995","FSL027"
"FSL028_600","La Querciola","43.8413413866383","11.3196302534164","FSL028"
"FSL029_600","Ferrucci Primo Settembre","43.8082959651022","11.3047622622065","FSL029"
"FSL030_600","Ferrucci Peramonda","43.8079222890827","11.3079968173804","FSL030"
"FSL031_600","Ferrucci La Querce","43.8082061417998","11.3104476016929","FSL031"
"FSL032_600","Ferrucci Di Vincigliata","43.8094209141484","11.3137955571172","FSL032"
"FSL033_600","Dei Bosconi San Clemente","43.8103000934157","11.3149023403131","FSL033"
"FSL034_600","Dei Bosconi San Michele A Muscoli","43.8154914403481","11.3170263748161","FSL034"
"FSL035_600","Dei Bosconi Poggiolino","43.8186032481411","11.319189136913","FSL035"
"FSL036_600","Dei Bosconi Podere Moro","43.8267255769534","11.3261765189895","FSL036"
"FSL037_600","Dei Bosconi Saletta","43.8318816909596","11.3296642402654","FSL037"
"FSL038_600","Dei Bosconi Le Cannelle","43.8365955830029","11.3322415295485","FSL038"
"FSL039_600","Dei Bosconi Montereggi","43.8408095396456","11.3351273806877","FSL039"
"FSL040_600","Faentina Maddalena","43.8376819083225","11.3167270034087","FSL040"
"FSL041_600","Faentina Fabbrica","43.8377473718868","11.316606707515","FSL041"
"FSL042_600","Caldine Liberta'","43.8333545185936","11.3105661451925","FSL042"
"FSL043_600","Dei Bosconi Case Nuove","43.859258938619","11.3430121554181","FSL043"
"FSL044_600","Dei Bosconi Masseto","43.8618271339593","11.3411027261179","FSL044"
"FSL045_600","Caldine Risorgimento","43.8333358298259","11.3103773054478","FSL045"
"FSL046_600","Faentina Acquinvogliolo","43.8584339169739","11.3397333833454","FSL046"
"FSL047_600","Pian Di Mugnone Faentina","43.8230328880856","11.298478502765","FSL047"
"FSL048_600","Bolognese Della Docciola","43.8318713760384","11.2876554037128","FSL048"
"FSL049_600","Pian Di Mugnone Il Farneto","43.823182923744","11.2984049860256","FSL049"
"FSL050_600","Pian Di Mugnone Repubblica","43.8197302551983","11.2950394928063","FSL050"
"FSL051_600","Pian Di Mugnone Primo Maggio","43.8192105901626","11.2946893130394","FSL051"
"FSL052_600","Faentina Delle Palazzine","43.8153244863534","11.2902592019861","FSL052"
"FSL053_600","Faentina Fonte Lucente","43.8151386267852","11.2898744183731","FSL053"
"FSL054_600","Faentina Km 5","43.8083440015402","11.2829789669521","FSL054"
"FSL055_600","Faentina Mugnone","43.8083718304918","11.2829380059576","FSL055"
"FSL056_600","Dei Bosconi Quattro Strade","43.8630071250537","11.3405002969469","FSL056"
"FSL057_600","Dei Bosconi L'Alberaccio","43.8615707759596","11.34109113374","FSL057"
"FSL058_600","Dei Bosconi San Friano","43.8590690682922","11.3432266978719","FSL058"
"FSL059_600","Dei Bosconi Catena","43.8557686472758","11.3419433678314","FSL059"
"FSL060_600","Dei Bosconi Palagina","43.8504897164175","11.339671455054","FSL060"
"FSL061_600","Dei Bosconi Sant'Ilario","43.8440079276659","11.338233211426","FSL061"
"FSL062_600","Dei Bosconi Villa Vita","43.8405969325526","11.3349574382585","FSL062"
"FSL063_600","Dei Bosconi Villa Monetti","43.8363521885176","11.3320755721684","FSL063"
"FSL064_600","Dei Bosconi Santa Margherita","43.8306490997983","11.3284335720751","FSL064"
"FSL065_600","Dei Bosconi Il Colombaio","43.8263687424937","11.3259524840397","FSL065"
"FSL066_600","Dei Bosconi Il Poggiolino","43.819047826517","11.3194069242718","FSL066"
"FSL067_600","Dei Bosconi Villa Ronconi","43.8153133530934","11.3170884930256","FSL067"
"FSL068_600","Dei Bosconi Monte Fanna","43.8101980880654","11.3147733248604","FSL068"
"FSL069_600","Ferrucci Bosconi","43.8092585345703","11.3135978859994","FSL069"
"FSL070_600","Ferrucci Baccano","43.8080842248143","11.3102299962329","FSL070"
"FSL071_600","Ferrucci Campeggio Fiesole","43.8079879115067","11.3075250530468","FSL071"
"FSL072_600","Ferrucci Villa Rinuccino","43.808310932073","11.3039623174562","FSL072"
"FSL073_600","Ferrucci Fossataccio","43.8075985003203","11.3021800481259","FSL073"
"FSL074_600","Ferrucci Borgunto","43.8070820558762","11.2967506762937","FSL074"
"FSL075_600","Gramsci Piazza Garibaldi","43.8070240322561","11.2944858079152","FSL075"
"FSL076_600","Di Vincigliata Villa Peyron","43.8077783467852","11.3239776029107","FSL076"
"FSL077_600","Di Vincigliata Castel Di Poggio","43.8032038748365","11.3251194430333","FSL077"
"FSL078_600","Di Vincigliata Castello","43.7996990129572","11.3250222950586","FSL078"
"FSL081_600","Pontanico Il Lago","43.7892016976906","11.35054789948","FSL081"
"FSL082_600","Pontanico Romena","43.7875921391036","11.3576129000358","FSL082"
"FSL083_600","Sambre Romena","43.7847709821512","11.3601598866104","FSL083"
"FSL084_600","Aretina Venturini","43.7843111344809","11.3654156493643","FSL084"
"FSL086_600","Le Falle","43.78572814015","11.3743619921778","FSL086"
"FSL088_600","Aretina Polifemo","43.784226468241","11.3660259094988","FSL088"
"FSL089_600","Salviatino Lucciole","43.789595222614","11.2993182232662","FSL089"
"FSL090_600","Giuliano Da Maiano","43.7941237633115","11.3042430872122","FSL090"
"FSL091_600","Cave Di Maiano","43.7968528079255","11.3077615966207","FSL091"
"FSL092_600","Maiano","43.7941266743657","11.3040987691703","FSL092"
"FSL093_600","Villa Il Salviatino","43.7894317248793","11.2989422057023","FSL093"
"FSL094_600","Aretina Torraccia","43.7734357885219","11.3546987215701","FSL094"
"FSL095_600","Aretina Stazione Compiobbi","43.7809804820039","11.3590724742296","FSL095"
"FSL096_600","Aretina Mazzini","43.7844141568463","11.3610887685887","FSL096"
"FSL097_600","Sambre Sottopasso Fs","43.7847923820853","11.3602135457618","FSL097"
"FSL098_600","Sambre Calcinaia","43.7876314684032","11.3576703729802","FSL098"
"FSL099_600","Pontanico Pieve Di Romena","43.7894983672732","11.3468036544493","FSL099"
"FSL101_600","Di Montebeni La Montanina","43.7942964207082","11.329908788121","FSL101"
"FSL102_600","Di Vincigliata Di Montebeni","43.7996965795769","11.3251418449483","FSL102"
"FSL103_600","Di Vincigliata Paterno","43.8032033375511","11.3251458387073","FSL103"
"FSL104_600","Di Vincigliata Rio Torto","43.807330839876","11.3251739332835","FSL104"
"FSL105_600","Del Girone Il Renaio","43.7700030214354","11.3372816197626","FSL105"
"FSL106_600","Delle Gualchiere","43.7688020517175","11.3354721502397","FSL106"
"FSL107_600","Dell'Arno Viacce","43.7671183185303","11.3376770555118","FSL107"
"FSL108_600","Dell'Arno Molino","43.7682835372268","11.3392521716315","FSL108"
"FSL126_600","Garibaldi Gramsci","43.8069119316575","11.2949119756795","FSL126"
"FSL128_600","Matteotti Colzi","43.8073896646957","11.3015970346407","FSL128"
"FSL140_600","Dei Bosconi Vecchia Molina","43.8442726040063","11.3383662740372","FSL140"
"FSL141_600","Dei Bosconi Torre Di Buiano","43.8508044763374","11.3394691556133","FSL141"
"FSL142_600","Dei Bosconi Acquinvogliolo","43.8558910484789","11.3421738634026","FSL142"
"FSL145_600","Dei Bosconi Brisighellese","43.8631279705235","11.3402312644655","FSL145"
"FSL147_600","Variante Ss67 Ferrovia","43.7857081390094","11.3720745117028","FSL147"
"FSL148_600","Faentina Canto E Rosai","43.8560812542612","11.3346290857488","FSL148"
"FSL149_600","Faentina Campolungo","43.8543273998447","11.3297168552074","FSL149"
"FSL150_600","Faentina Massetino","43.8447506227763","11.3239082847387","FSL150"
"FSL151_600","Faentina Molino Nuovo","43.8453729205756","11.3242586346706","FSL151"
"FSL152_600","Faentina Il Molinuzzo","43.8543294377279","11.3293299903391","FSL152"
"FSL153_600","Faentina Belvedere","43.8562096783466","11.3349136158133","FSL153"
"FSL154_600","Faentina Olmo","43.8582717125815","11.3375417783122","FSL154"
"FSL155_600","Faentina Quattro Strade","43.8584034991554","11.3400579452901","FSL155"
"FSL189_600","Aretina Compiobbi","43.7844372567337","11.3610601631983","FSL189"
"FSL190_600","Aretina Campacci","43.781414444588","11.3589854729948","FSL190"
"FSL191_600","Aretina Quintole","43.7735310802086","11.3546620808655","FSL191"
"FSL192_600","Aretina Anchetta","43.7717954318526","11.3493165228014","FSL192"
"FSL193_600","Aretina Il Ponte","43.7716285885704","11.3491111923559","FSL193"
"FSL247_600","Faentina La Cascina","43.8582319475123","11.3372851476655","FSL247"
"FSL274_600","Della Docciola Pian Di San Bartolo","43.8337945429205","11.2864618172872","FSL274"
"FSL371_600","Mantellini San Domenico","43.801328538968","11.2909377779502","FSL371"
"FSL372_600","Mantellini Da Maiano","43.8008874331832","11.2934024198069","FSL372"
"FSL373_600","Angelico Regresso","43.8018132993348","11.2981802922361","FSL373"
"FSL374_600","Angelico Monte Ceceri","43.8036355869697","11.2941944395519","FSL374"
"FSL376_600","Angelico Ferruzzi","43.8033683567947","11.2944996532244","FSL376"
"FSL377_600","Angelico Da Maiano","43.8009576941029","11.2984178489311","FSL377"
"FSL378_600","Mantellini Bocklin","43.8010281044803","11.2935709586884","FSL378"
"FSL379_600","Mantellini Vecchia Fiesolana","43.8025196816436","11.2901302288484","FSL379"
"FSL380_600","Di San Domenico Della Badia","43.8013146081206","11.2855655312099","FSL380"
"FSL534_600","Media Compiobbi","43.784962809566","11.3643803616807","FSL534"
"FSL536_600","Aretina Pignino","43.7846254249518","11.3711011712915","FSL536"
"FSL537_600","Aretina Murri","43.7853149432332","11.3725824665046","FSL537"
"FSL556_600","Pontanico Selva","43.7894532905349","11.3468065504347","FSL556"
"FSL595_600","Il Girone","43.769724154828","11.3401283553192","FSL595"
"FSL630_600","Mura Etrusche Dupre'","43.8090326403442","11.2930988079092","FSL630"
"FSL655_600","Pontanico Villa Romena","43.7891441338785","11.3510543109484","FSL655"
"FSL689_600","Costa Case Popolari","43.8089651873666","11.2949722922757","FSL689"
"FSL698_600","Costa I Ceanzi","43.8097402759981","11.2989464503402","FSL698"
"FSL699_600","Venticinque Aprile Del Paretaio","43.8122184916466","11.3016052101098","FSL699"
"FSL700_600","Venticinque Aprile Fossato","43.8141905782599","11.3021023643926","FSL700"
"FSL701_600","Venticinque Aprile Palagio Dei Pesci","43.8171265318389","11.3002530367563","FSL701"
"FSL702_600","Venticinque Aprile La Torre","43.8179585978392","11.2984529263866","FSL702"
"FSL704_600","Pian Di Mugnone Fs","43.8173793669001","11.2953130415431","FSL704"
"FSL705_600","Di Fontalla Della Polveriera","43.8175338719433","11.295465066074","FSL705"
"FSL706_600","Venticinque Aprile La Cipressa","43.817853737546","11.2986988822971","FSL706"
"FSL708_600","Venticinque Aprile Bargellino","43.8168243319208","11.3004197976965","FSL708"
"FSL709_600","Venticinque Aprile Le Bastiere","43.8140673098227","11.3023825791424","FSL709"
"FSL710_600","Venticinque Aprile Villa Vivai","43.8120592531757","11.3017734043413","FSL710"
"FSL713_600","Costa Riorbico","43.8101184116685","11.2991557831898","FSL713"
"FSL714_600","Costa Sant'Anna","43.8089859059205","11.2954149252229","FSL714"
"FSL715_600","Mura Etrusche Sant'Anna","43.8091360691965","11.2931043210122","FSL715"
"FSL718_600","Faentina Manzolo","43.806366071689","11.2801327570816","FSL718"
"FSL720_600","Faentina Ferrovia","43.8118432488047","11.2856097672336","FSL720"
"FSL727_600","San Bartolo Il Bersaglio","43.8270409583579","11.3013080376784","FSL727"
"FSL728_600","Sant'Andrea Di Basciano","43.8344045329079","11.3081060604189","FSL728"
"FSL729_600","Mimmole San Martino","43.8365417718429","11.3074459198612","FSL729"
"FSL730_600","Caldine Nuove","43.8391157281014","11.3085209865991","FSL730"
"FSL731_600","Mimmole Mugnoncello","43.8363829541444","11.3072942696743","FSL731"
"FSL732_600","Sant'Andrea Il Bersaglio","43.8343188456181","11.3080691740782","FSL732"
"FSL733_600","San Bartolo Faentina","43.8269695250732","11.301278553901","FSL733"
"FSL734_600","Caldine San Bartolo","43.827045941011","11.3037407634054","FSL734"
"FSL739_600","Caldine Maddalena","43.8367382388572","11.3155781802869","FSL739"
"FSL743_600","Caldine Convento","43.8365117040241","11.3151611304826","FSL743"
"FSL744_600","Caldine Scuole","43.8357760331832","11.3141438451793","FSL744"
"FSL748_600","Caldine Cicaleto","43.8271765458605","11.3037380163958","FSL748"
"FSL754_600","Faentina Calderaio","43.8118945010467","11.2855231368166","FSL754"
"FSL756_600","Faentina Ponte Alla Badia","43.8070257403874","11.2802371797673","FSL756"
"FSL819_600","Bolognese Delle Ginestre","43.8341473123052","11.2879538309128","FSL819"
"FSL820_600","Bolognese Delle Serre","43.8370758497052","11.2897465795685","FSL820"
"FSL893_600","Sant'Andrea Bugia","43.833278733251","11.3088151202539","FSL893"
"FSL894_600","Faentina Castagneto","43.8128641197542","11.287010170254","FSL894"
"GCH106_600","Decimo Km","43.6831913827506","11.2936254934677","GCH106"
"GCH134_600","La Presura Greve","43.6876649511411","11.296227761078","GCH134"
"GCH139_600","Poggio Sala 1","43.6687095448573","11.2915332930192","GCH139"
"GCH140_600","Parcole 2","43.6705859018248","11.2848031810026","GCH140"
"GCH143_600","Tortelli 2","43.6726013376011","11.2777700389485","GCH143"
"GCH144_600","Casanova 1","43.6715958616954","11.280200528505","GCH144"
"GCH145_600","Parcole 1","43.6704265573962","11.2848202043307","GCH145"
"GCH147_600","Santa Cristina Villaggio 1","43.6688190494096","11.2871827153561","GCH147"
"GCH148_600","Casanova 2","43.6716713829231","11.2804135145689","GCH148"
"GCH149_600","Tortelli 1","43.6724785612867","11.2778451524936","GCH149"
"GCH150_600","Decimo Km","43.682526924184","11.2932393899898","GCH150"
"GCH151_600","Poggio Olivello","43.6784195460392","11.2928905865511","GCH151"
"GCH153_600","Poggio Olivello","43.6779237958771","11.2927879626865","GCH153"
"GCH158_600","Petigliolo","43.6717170588343","11.2921285624683","GCH158"
"GCH160_600","Petigliolo","43.6718106687626","11.2922197000157","GCH160"
"GCH206_600","Poggio Sala 2","43.6690614489813","11.2905433646365","GCH206"
"GCH207_600","Santa Cristina Villaggio 2","43.6688070578894","11.286684259195","GCH207"
"GCH956_600","Di Tizzano Il Palagio","43.6834107723149","11.3405161681997","GCH956"
"GCH957_600","Fiorentina Montiani","43.6764860888091","11.3476830713607","GCH957"
"GCH958_600","Fiorentina Terra Bianca","43.6748389860328","11.3515961488553","GCH958"
"GCH959_600","Fiorentina Piazza Della Fiera","43.6719995409835","11.3542706888598","GCH959"
"GCH960_600","Fiorentina Garibaldi","43.6715639817098","11.3575480429811","GCH960"
"GCH961_600","San Polo","43.6708429005161","11.360473106473","GCH961"
"GCH962_600","Fiorentina Dei Giaggioli","43.6715904157977","11.3570174408613","GCH962"
"GCH963_600","Fiorentina Ciocca","43.6720855155701","11.3541794078135","GCH963"
"GCH964_600","Fiorentina Il Giaco","43.6749310212324","11.3514990183047","GCH964"
"GCH965_600","Fiorentina Regino","43.6767885704134","11.3473957832098","GCH965"
"GCH966_600","Di Tizzano La Collina","43.6834671821267","11.3399732206463","GCH966"
"IMT003_600","Cassia Fratelli Rosselli","43.7096476215673","11.2157526864672","IMT003"
"IMT004_600","Cassia Repubblica","43.7104597379223","11.2168205833839","IMT004"
"IMT005_600","Ugolino","43.7033226903474","11.2931366827588","IMT005"
"IMT025_600","Poggio Ugolino","43.695810584298","11.2929286760989","IMT025"
"IMT026_600","Poggio Ugolino","43.695666055391","11.2929628400967","IMT026"
"IMT027_600","La Presura Greve","43.687557169244","11.2961565234898","IMT027"
"IMT032_600","Cassia Parcheggio","43.7211478735458","11.2239558084566","IMT032"
"IMT035_600","Bottai Parcheggio","43.7256478339578","11.2249743609693","IMT035"
"IMT044_600","Monte S. Antonio","43.6913456056823","11.2540357153058","IMT044"
"IMT045_600","I Meccoli","43.6964789987692","11.2507708788833","IMT045"
"IMT046_600","Le Rose","43.7017513093815","11.2492446639606","IMT046"
"IMT047_600","Campiano","43.7059920336153","11.2524967913197","IMT047"
"IMT048_600","Sant'Isidoro","43.7112727704677","11.2568833033867","IMT048"
"IMT049_600","Impruneta Via Vittorio Veneto","43.6848163884179","11.2569672515554","IMT049"
"IMT050_600","Mezzomonte","43.715500904637","11.2602597987321","IMT050"
"IMT051_600","Don Gnocchi","43.7207539159845","11.2514564208792","IMT051"
"IMT052_600","Croce Di Via Di Pozzolatico","43.7243186029792","11.2447535523197","IMT052"
"IMT054_600","Monte Oriolo","43.7087393426853","11.2552693063738","IMT054"
"IMT061_600","Impruneta Piazza Buondelmonti 1","43.6857062191809","11.2544315123767","IMT061"
"IMT066_600","Cassia Cooperazione","43.7142133588659","11.2212693947322","IMT066"
"IMT068_600","Porcinaia 1","43.6747423849771","11.2693460051096","IMT068"
"IMT069_600","Ferrone Impruneta 2","43.6837063941038","11.2562484649644","IMT069"
"IMT071_600","Prachatice Ferrone 1","43.6777101710798","11.2575608071924","IMT071"
"IMT073_600","Fornace Poggi 2","43.6901843432551","11.2430366233519","IMT073"
"IMT074_600","Impruneta La Presura 2","43.6773169022009","11.263003505034","IMT074"
"IMT075_600","Impruneta La Presura 1","43.6771711187619","11.2632224342092","IMT075"
"IMT076_600","Prachatice Pinetina 2","43.6772414310196","11.2597475139944","IMT076"
"IMT077_600","Ferrone Fornaci 1","43.6792245008558","11.2565986120133","IMT077"
"IMT078_600","Ferrone Impruneta 1","43.6834548110055","11.2559760128758","IMT078"
"IMT079_600","Impruneta Viale Libert 2","43.6877158797999","11.2523925800066","IMT079"
"IMT080_600","Ferrone Fornaci 2","43.6793133525099","11.2567224028402","IMT080"
"IMT081_600","Convento Suore 1","43.6918891364325","11.2346396014679","IMT081"
"IMT082_600","Bagnolo Cimitero 1","43.6924601509237","11.2267075221318","IMT082"
"IMT083_600","Bagnolo 1","43.6957741995725","11.219882977354","IMT083"
"IMT084_600","Tavarnuzze Montebuoni 2","43.7056582666379","11.2210039532562","IMT084"
"IMT085_600","Tavarnuzze","43.7105792356684","11.218929843022","IMT085"
"IMT087_600","Croce Di Via Di Pozzolatico","43.7248986544614","11.2449621941409","IMT087"
"IMT088_600","Don Gnocchi","43.720902666155","11.2511405883499","IMT088"
"IMT089_600","La Querciola","43.7199597699505","11.2558989644882","IMT089"
"IMT090_600","Scaluccia","43.7178537516075","11.2595525696767","IMT090"
"IMT091_600","Mezzomonte","43.7156035620954","11.2603272146895","IMT091"
"IMT092_600","Lo Scopetello","43.7130831257445","11.257074407553","IMT092"
"IMT093_600","Monte Oriolo","43.7087884372777","11.2554732737485","IMT093"
"IMT094_600","Campiano","43.7061321818443","11.2526767918097","IMT094"
"IMT095_600","Le Rose","43.7025642484566","11.2495462408863","IMT095"
"IMT096_600","Prachatice Pinetina 1","43.6771913014693","11.2598921377147","IMT096"
"IMT097_600","Monte S. Antonio","43.6916846951396","11.2542403765457","IMT097"
"IMT098_600","Il Pino","43.7300879387826","11.2484146091042","IMT098"
"IMT099_600","Tavarnuzze Stazione","43.7110220086441","11.2196263152785","IMT099"
"IMT100_600","Tavarnuzze Montebuoni 1","43.7058223906739","11.2213148341808","IMT100"
"IMT101_600","Montebuoni 1","43.6983420398441","11.2191686486862","IMT101"
"IMT102_600","Bagnolo 2","43.6941214772597","11.2207688940315","IMT102"
"IMT103_600","Bagnolo Cimitero 2","43.6922937206362","11.2268575828587","IMT103"
"IMT104_600","Cascine Del Riccio","43.7339064912699","11.2551585866497","IMT104"
"IMT105_600","Fornace Poggi 1","43.6905596466401","11.2423056400464","IMT105"
"IMT106_600","San Luca","43.6896079996062","11.2566993348819","IMT106"
"IMT107_600","Impruneta Piazza Buondelmonti 2","43.6855832141266","11.2544642484808","IMT107"
"IMT110_600","I Meccoli","43.6964822252871","11.2505842407393","IMT110"
"IMT111_600","Impruneta Terza Piazza","43.6795208354798","11.2646743117934","IMT111"
"IMT116_600","Sant'Isidoro","43.7114412762944","11.2572044061045","IMT116"
"IMT122_600","Montebuoni 2","43.6985521427485","11.2193469101462","IMT122"
"IMT123_600","Lo Scopetello","43.7137026397794","11.2574947551931","IMT123"
"IMT124_600","La Querciola","43.7198419651243","11.2568399966198","IMT124"
"IMT125_600","Scaluccia","43.7176201100897","11.2601879056309","IMT125"
"IMT126_600","Impruneta Viale Libert 1","43.6877276796493","11.2524798493529","IMT126"
"IMT129_600","Cassia Abate","43.7181848000531","11.2228453023349","IMT129"
"IMT166_600","Borghetto","43.7142421880543","11.2212221738805","IMT166"
"IMT198_600","Prachatice Ferrone 2","43.6777330400419","11.257715739534","IMT198"
"IMT199_600","Montebuoni","43.7107780419757","11.2193327578025","IMT199"
"IMT204_600","Convento Suore 2","43.6918261400104","11.2347808249991","IMT204"
"IMT213_600","Guido Rossa","43.7319353784787","11.2573164117292","IMT213"
"IMT226_600","Porcinaia 2","43.674819222359","11.2691039083168","IMT226"
"IMT227_600","Tavarnuzze Primo Maggio","43.7088754767758","11.2126212774992","IMT227"
"IMT228_600","Cassia Le Rose","43.7219360250485","11.224632082909","IMT228"
"IMT229_600","Bottai Colle Ramole","43.7258266293005","11.2248087196265","IMT229"
"IMT230_600","Cassia Fiume Greve","43.7147982017368","11.2212894559845","IMT230"
"IMT232_600","Cassia Indipendenza","43.7094962753906","11.2147355359746","IMT232"
"IMT235_600","Resistenza Montebuoni","43.7100364670306","11.2175217706533","IMT235"
"IMT239_600","Cassia Pescaia","43.7155780685717","11.2219296263845","IMT239"
"IMT240_600","Cassia Casello A1","43.7187997468395","11.2231690829294","IMT240"
"IMT49B_600","Impruneta Piazza Accursio","43.6847039835047","11.2569217967686","IMT49B"
"LSG011_600","Pollaiolo Podere Barca","43.7323798685937","11.0968243229578","LSG011"
"LSG013_600","Pollaiolo Marliano","43.7364399918847","11.0963606986508","LSG013"
"LSG030_600","Di Carcheri Inno","43.7269933015971","11.0949928199478","LSG030"
"LSG031_600","Di Carcheri Dei Morelli","43.7156974972399","11.079015782847","LSG031"
"LSG111_600","Carcheri","43.7134445651748","11.0776422783018","LSG111"
"LSG129_600","Lastra A Signa Fs","43.7692963422217","11.1026023990177","LSG129"
"LSG142_600","Spazzavento","43.7405407371948","11.0611137487817","LSG142"
"LSG169_600","Livornese Navicellai","43.7635669478547","11.059619964187","LSG169"
"LSG177_600","Maremmana Vecchia Pisana","43.7477365664089","11.0893931949968","LSG177"
"LSG178_600","Di Carcheri Molino Di Ripalta","43.7246337843529","11.0918300566473","LSG178"
"LSG225_600","Vigliano","43.750185035248","11.1306147309087","LSG225"
"LSG469_600","Livornese Nuova Guardiana","43.7698463431664","11.1169424820872","LSG469"
"LSG470_600","Livornese Bertelli","43.7699762989367","11.1116231128283","LSG470"
"LSG471_600","Livornese Cadorna","43.7696675854418","11.106398647652","LSG471"
"LSG472_600","Livornese Del Leccio","43.7709985557945","11.0989004783604","LSG472"
"LSG473_600","Ponte A Signa","43.772030292038","11.0961580535221","LSG473"
"LSG482_600","Livornese Della Torre","43.7715951995767","11.0928797798445","LSG482"
"LSG483_600","Livornese Caruso","43.7756730134968","11.0867703873912","LSG483"
"LSG484_600","Porto Di Mezzo","43.7790339163939","11.0794687757489","LSG484"
"LSG485_600","Livornese Pilati","43.7775239587383","11.0825369199115","LSG485"
"LSG486_600","Livornese Lavagnini","43.7746891463944","11.08789179103","LSG486"
"LSG487_600","Livornese Bellosguardo","43.77162485385","11.0934726093384","LSG487"
"LSG496_600","Livornese Presidio Asl","43.7708425916062","11.0993035449843","LSG496"
"LSG497_600","Cadorna","43.7694131654378","11.106768658455","LSG497"
"LSG498_600","Livornese Fratelli Rosselli","43.7698980345205","11.1119604780507","LSG498"
"LSG499_600","Livornese Santa Maria","43.7697053719696","11.1187187983024","LSG499"
"LSG623_600","Chiantigiana Piazza Del Popolo","43.7087195936403","11.0730548620522","LSG623"
"LSG869_600","Di Rimaggio Stazione Fs","43.7697258763367","11.1029901858253","LSG869"
"LSG870_600","Vecchia Pisana Di Rimaggio","43.7671903715026","11.1028003702643","LSG870"
"LSG871_600","Vecchia Pisana Borro Rimaggio","43.7649524455981","11.102096111513","LSG871"
"LSG872_600","Vecchia Pisana Villa Il Serraglio","43.7633345926334","11.1019447106246","LSG872"
"LSG873_600","Vecchia Pisana Del Serraglio","43.7614879855375","11.100279051599","LSG873"
"LSG874_600","Vecchia Pisana Poggio Del Mandorlo","43.7582514428175","11.0968351239652","LSG874"
"LSG875_600","Vecchia Pisana Villa Bartolini","43.7527501371716","11.0919307677863","LSG875"
"LSG876_600","Vecchia Pisana Scorciatoia","43.751357785828","11.0907721547105","LSG876"
"LSG877_600","Artigiani","43.7053814586048","11.0845822845802","LSG877"
"LSG878_600","Maremmana Quattro Strade","43.742295205156","11.0861193557016","LSG878"
"LSG885_600","Di Carcheri Del Lastrico","43.7115155948608","11.0755337729105","LSG885"
"LSG887_600","Chiantigiana De' Morelli","43.7095229754393","11.0704784654046","LSG887"
"LSG888_600","Maremmana Il Grillaio","43.7108234186848","11.0682735292693","LSG888"
"LSG889_600","Maremmana Case Passeri","43.7154927096361","11.0692177698585","LSG889"
"LSG890_600","Maremmana Case Poccianti","43.720524898382","11.0727508175035","LSG890"
"LSG891_600","Maremmana Villa Allegri","43.7261490768406","11.077604824082","LSG891"
"LSG892_600","Maremmana La Luna","43.7304361098275","11.0815045981845","LSG892"
"LSG893_600","Maremmana Di Spicchiello","43.7367163995213","11.0817361953858","LSG893"
"LSG894_600","Maremmana Pollaiolo","43.7423765259442","11.0861035524703","LSG894"
"LSG895_600","Maremmana Poggio Ramerino","43.7471052539481","11.089205111838","LSG895"
"LSG896_600","Vecchia Pisana Ramerino","43.75086922104","11.090655775509","LSG896"
"LSG897_600","Vecchia Pisana Belfiore","43.7528815814256","11.0921278731116","LSG897"
"LSG898_600","Vecchia Pisana Tiro A Segno","43.75792336593","11.0965596948706","LSG898"
"LSG899_600","Vecchia Pisana La Falterona","43.761708640605","11.1007650510325","LSG899"
"LSG900_600","Vecchia Pisana Molino","43.7635874433006","11.1019038747966","LSG900"
"LSG901_600","Vecchia Pisana Ponte Torto","43.7648408018463","11.1020471654707","LSG901"
"LSG902_600","Vecchia Pisana S. Lucia","43.7673398911219","11.1027481497144","LSG902"
"LSG903_600","Di Rimaggio Livornese","43.7698301920422","11.1031926337887","LSG903"
"LSG904_600","Di Sotto Scuole","43.7717644045502","11.1057205664865","LSG904"
"LSG907_600","Di Carcheri Pianacci","43.7305427556673","11.1007660200245","LSG907"
"LSG908_600","Chiantigiana Di Ripalta","43.7064606723473","11.0806977116201","LSG908"
"LSG909_600","Di Carcheri Villa Martorelli","43.7210520134564","11.0865689360063","LSG909"
"LSG910_600","San Martino A Carcheri","43.7169305687243","11.0827467996192","LSG910"
"LSG911_600","Chiantigiana Di Carcheri","43.7081666257614","11.0755128009306","LSG911"
"LSG912_600","Chiantigiana Redipuglia","43.7086346231967","11.0732917283951","LSG912"
"LSG913_600","Chiantigiana Della Fornace","43.7080920505668","11.0756529610713","LSG913"
"LSG923_600","Pollaiolo Aleramo","43.7423711979307","11.0846689983955","LSG923"
"LSG924_600","Pollaiolo Case Buchette","43.7449009271329","11.0822155213297","LSG924"
"LSG925_600","Pollaiolo Vecchia Pisana","43.7467554261196","11.0807459999842","LSG925"
"LSG926_600","Vecchia Pisana San Salvadore","43.7490209554099","11.077467966524","LSG926"
"LSG927_600","Vecchia Pisana Villa Medici","43.7482443616164","11.0741249557038","LSG927"
"LSG928_600","Vecchia Pisana Castello","43.7479498584401","11.0724924275976","LSG928"
"LSG930_600","Vecchia Pisana Piave","43.746165625371","11.0690992929248","LSG930"
"LSG931_600","Vecchia Pisana Lippi","43.7448705045813","11.0675301962752","LSG931"
"LSG932_600","Vecchia Pisana San Pietro","43.7439484911767","11.0652428295114","LSG932"
"LSG934_600","Vecchia Pisana De Gasperi","43.743839381406","11.0650527906448","LSG934"
"LSG935_600","Vecchia Pisana Delle Macine","43.7448202015121","11.067573484206","LSG935"
"LSG936_600","Vecchia Pisana Circolo","43.7462319861933","11.0691636775865","LSG936"
"LSG937_600","Vecchia Pisana Ferrucci","43.7479908514261","11.0727142966497","LSG937"
"LSG938_600","Vecchia Pisana Le Mura","43.748197774041","11.0739634389542","LSG938"
"LSG939_600","Vecchia Pisana Pollaiolo","43.7490519248917","11.0777453868053","LSG939"
"LSG940_600","Pollaiolo Di Gello","43.7468195416278","11.0806861233383","LSG940"
"LSG941_600","Pollaiolo Di Bracciatica","43.7449511224096","11.0821784515582","LSG941"
"LSG942_600","Pollaiolo Montessori","43.7423595957259","11.0848114115711","LSG942"
"LSG976_600","Livornese Delle Selve","43.7728011552629","11.0904492618183","LSG976"
"LSG977_600","Livornese La Lisca","43.7758904287513","11.0701182214362","LSG977"
"LSG979_600","Livornese Don Facibeni","43.7603460137829","11.0591454447141","LSG979"
"LSG980_600","Livornese Corliano","43.7581284944697","11.0537899931648","LSG980"
"LSG990_600","Livornese Di Novoli","43.7579657753566","11.0548278748344","LSG990"
"LSG991_600","Livornese Brucianesi","43.7606775590277","11.0593034066584","LSG991"
"LSG992_600","Livornese Ponte Di Macinaia","43.7761955139654","11.0701753473626","LSG992"
"LSG993_600","Livornese Gramsci","43.7787305668907","11.0795638817945","LSG993"
"LSG994_600","Livornese Porto Di Mezzo","43.7787431312079","11.0796155759966","LSG994"
"MLF000_600","Caverni Umberto I","43.732372393658","11.020282808944","MLF000"
"MLF004_600","Caverni Otto Marzo","43.7325745259775","11.0205627755704","MLF004"
"MLF005_600","Gramsci Museo Della Ceramica","43.7347257096598","11.0215071940456","MLF005"
"MLF006_600","Tosco Romagnola Montaluzzo","43.7385084987453","11.0294192267794","MLF006"
"MLF024_600","Montelupo3 Sn","43.7284249973943","11.0123510159463","MLF024"
"MLF041_600","Gramsci Sanminiatello","43.7395969155049","11.0271080901735","MLF041"
"MLF042_600","Giro Delle Mura Stazione Fs","43.7337151629067","11.0199585606905","MLF042"
"MLF043_600","Giro Delle Mura Roma","43.7335330306179","11.0198204440276","MLF043"
"MLF141_600","Montelupo Cento Fiori","43.7303054500717","11.0195536246972","MLF141"
"MLF878_600","Gramsci Fratelli Rosselli","43.7381740467117","11.0255258326517","MLF878"
"MLF918_600","Caverni Cardinale","43.7291453962269","11.0163435677873","MLF918"
"MLF919_600","Caverni Scuole","43.7292301164481","11.0164662261983","MLF919"
"MLF981_600","Tosco Romagnola Camaioni","43.7658516145937","11.0390698361705","MLF981"
"MLF982_600","Tosco Romagnola Ragnaia","43.7560058888372","11.0302405079976","MLF982"
"MLF984_600","Gramsci Repubblica","43.7364239286396","11.0235948667564","MLF984"
"MLF985_600","Matteotti Del Porro","43.7347992285826","11.0208783759241","MLF985"
"MLF986_600","Gramsci Pavese","43.7366659682179","11.0239087427228","MLF986"
"MLF987_600","Bozzeto","43.7372296975967","11.0271532446244","MLF987"
"MLF988_600","Tosco Romagnola Cancellaia","43.7564535317084","11.0301298789849","MLF988"
"MLF989_600","Tosco Romagnola San Vito","43.7658363941754","11.0396703132677","MLF989"
"PO1860_600","Cellerese Interporto","43.8528635600286","11.1352902204568","PO1860"
"SCD008_600","Poggio Al Pino","43.7235796814781","11.1522196771256","SCD008"
"SCD009_600","Bricoli","43.7446800755935","11.1242904941132","SCD009"
"SCD017_600","Dell'Arrigo Spazzavento","43.7235479856634","11.1522294049005","SCD017"
"SCD018_600","Taverna Del Diavolo","43.723554891401","11.1465979601374","SCD018"
"SCD019_600","T1 De Andre'","43.7541562126092","11.1785617530853","SCD019"
"SCD020_600","Di Scandicci Amendola","43.7585748173799","11.2012185580713","SCD020"
"SCD031_600","Via Dell'Arrigo","43.7235183475749","11.1466261399785","SCD031"
"SCD043_600","Cancellacci","43.7515623543378","11.1421822262748","SCD043"
"SCD044_600","Via Di Calcinaia","43.7514227051156","11.1423841086683","SCD044"
"SCD061_600","Podere Barcaccia","43.7247015583268","11.1283794087621","SCD061"
"SCD062_600","Casanova","43.724707357226","11.1283097791756","SCD062"
"SCD063_600","La Roveta","43.7315536115316","11.1237657422532","SCD063"
"SCD076_600","Europa Barontini","43.7715114649867","11.138483658261","SCD076"
"SCD098_600","Vingone San Zanobi","43.7457744397492","11.1806576692438","SCD098"
"SCD099_600","Roma Redi","43.7478076630289","11.1822728222241","SCD099"
"SCD100_600","Roma Delle Corbinaie","43.7500005263983","11.1846257001371","SCD100"
"SCD101_600","Roma Cioppi","43.7519903411395","11.187395523832","SCD101"
"SCD102_600","Matteotti Alighieri","43.7536491763148","11.1904816221565","SCD102"
"SCD103_600","Marconi Impianti Sportivi","43.7544515518512","11.1930075107397","SCD103"
"SCD104_600","Poccianti Macchiaioli","43.7562772716821","11.1973286216612","SCD104"
"SCD115_600","Roncigliano Civico 3","43.7291745827756","11.1263342917599","SCD115"
"SCD116_600","Roncigliano Marciola","43.7292267970969","11.126528625674","SCD116"
"SCD130_600","Sorgente Roveta","43.7315090556375","11.1237408861321","SCD130"
"SCD143_600","Borro Di Roncigliano","43.7334244021284","11.1231442955683","SCD143"
"SCD147_600","Cerchiaie","43.7334479339815","11.1230892511495","SCD147"
"SCD148_600","Michelucci","43.779820103707","11.1507994524705","SCD148"
"SCD170_600","Pedata Del Diavolo","43.7401636147635","11.1221732966712","SCD170"
"SCD175_600","Mozza","43.7826652263569","11.1500813066136","SCD175"
"SCD192_600","Madonnina","43.740191673905","11.1221168534754","SCD192"
"SCD193_600","Torricino","43.7488004023071","11.1278549070132","SCD193"
"SCD194_600","Poccianti Ballerini","43.756282941551","11.1970338157709","SCD194"
"SCD195_600","Marconi Dante","43.7543616058384","11.1925337707172","SCD195"
"SCD196_600","Matteotti Paoli","43.7535731700965","11.1902194967839","SCD196"
"SCD197_600","Roma Biblioteca Comunale","43.7516379286782","11.1869024376804","SCD197"
"SCD198_600","Roma Cellini","43.7498108982209","11.1843203402137","SCD198"
"SCD210_600","La Buca","43.7488280886829","11.1278186279678","SCD210"
"SCD211_600","Dei Ciliegi Scuola Rodari","43.7521524774027","11.1790572834629","SCD211"
"SCD212_600","Dei Ciliegi Fanfani","43.7519665527764","11.1791281640521","SCD212"
"SCD216_600","Donizetti Scuola Marconi","43.7616495194368","11.1763119522497","SCD216"
"SCD224_600","Fosso Del Meriggio","43.7501709601461","11.1306452823341","SCD224"
"SCD234_600","Via Delle Fonti","43.7544767250504","11.1392073096708","SCD234"
"SCD250_600","Vespucci Manzoni","43.7518069901254","11.1832413858813","SCD250"
"SCD263_600","Di Porto Gemmi","43.7764514387327","11.143916210598","SCD263"
"SCD264_600","San Colombano San Lorenzo","43.7779894782083","11.1442489130234","SCD264"
"SCD275_600","Botteghino Borgo Ai Fossi","43.7727081712099","11.1540995563069","SCD275"
"SCD279_600","Colombo Dei Ciliegi","43.7540294296711","11.1821053798745","SCD279"
"SCD280_600","Fanfani Dei Ciliegi","43.7520070140322","11.180145649374","SCD280"
"SCD281_600","Ponte Di Formicola","43.7476112549411","11.1735659025002","SCD281"
"SCD282_600","Triozzi","43.7469097976519","11.1758877671383","SCD282"
"SCD283_600","Cooperazione","43.7496166547459","11.1748743211891","SCD283"
"SCD284_600","Pacini Bassa","43.7665366491133","11.1704900918165","SCD284"
"SCD285_600","Pacini Cimarosa","43.766543510571","11.1708397581527","SCD285"
"SCD286_600","Francoforte T1 Resistenza","43.7577711253545","11.1825717140065","SCD286"
"SCD297_600","Barontini Casa Del Popolo","43.7750904591493","11.1346273133007","SCD297"
"SCD298_600","Barontini Pio La Torre","43.7726016877708","11.1350714726943","SCD298"
"SCD302_600","Delle Bagnese Spadini","43.7561637019036","11.1994873740267","SCD302"
"SCD303_600","Delle Bagnese Andreotti","43.7530305988547","11.2021541152531","SCD303"
"SCD308_600","Santa Maria Del Bosco","43.7545587779408","11.1391527854574","SCD308"
"SCD309_600","Delle Bagnese Di Scandicci","43.7564450787737","11.1992339736419","SCD309"
"SCD338_600","Le Fonti","43.7580752749543","11.1458415955546","SCD338"
"SCD345_600","Europa Stagnacci","43.7714358933492","11.1387498987214","SCD345"
"SCD348_600","Lavanderia","43.758240446321","11.1459158222471","SCD348"
"SCD350_600","Casarsa","43.7541586023542","11.1527878685237","SCD350"
"SCD351_600","Montaguglione","43.7541895672092","11.1528169267607","SCD351"
"SCD356_600","Gemmi Campo Sportivo","43.7767883181806","11.1442105684014","SCD356"
"SCD366_600","Gemmi Interna","43.776206728248","11.1453259893651","SCD366"
"SCD368_600","Via Di Roncigliano","43.744712490426","11.124241963864","SCD368"
"SCD370_600","La Comune Caduti Dello Scire'","43.7774215156386","11.1452475413332","SCD370"
"SCD371_600","San Bartolo Benini","43.7528954063605","11.1856487100348","SCD371"
"SCD376_600","Via Di Marciola","43.7226997458438","11.1413961986223","SCD376"
"SCD377_600","Via Di Mosciano","43.7235347163372","11.1462341047852","SCD377"
"SCD378_600","Pruniccie","43.7368967264755","11.1245196619343","SCD378"
"SCD383_600","Villa Carboni","43.7354416457031","11.1653367112826","SCD383"
"SCD384_600","Fanfani Marco Polo","43.7521923672175","11.1805057521546","SCD384"
"SCD385_600","Colombo San Bartolo","43.7542272728713","11.1823863353287","SCD385"
"SCD387_600","Empolese Variante Chiantigiana","43.7043092841954","11.089059583564","SCD387"
"SCD388_600","Le Fontine","43.7324116486327","11.1502835658304","SCD388"
"SCD389_600","Empolese Podere Del Bosco","43.7027547097115","11.0915993908342","SCD389"
"SCD400_600","Pieve Di San Martino","43.7488419345025","11.1427341073629","SCD400"
"SCD408_600","Delle Bagnese Borrani","43.7531556192865","11.2016936606583","SCD408"
"SCD409_600","Stagnacci Mafai","43.7736390218112","11.1400210229032","SCD409"
"SCD412_600","Sorgente","43.7487495263049","11.1426205811247","SCD412"
"SCD414_600","Romero","43.7653490554136","11.1867327938707","SCD414"
"SCD415_600","Podere Muricce","43.710280603444","11.104038501405","SCD415"
"SCD416_600","Sassoli","43.707644162644","11.1004516312765","SCD416"
"SCD418_600","Stagnacci Di Grioli","43.7763818379029","11.1409157487213","SCD418"
"SCD419_600","Piazza Brunelleschi","43.7482299035515","11.1810247497747","SCD419"
"SCD420_600","Scuola Rodari","43.7540121093877","11.1790362901606","SCD420"
"SCD421_600","Scuola Russell","43.7538162386952","11.1798644997288","SCD421"
"SCD424_600","Il Casone","43.7042111948294","11.0968719308383","SCD424"
"SCD425_600","Rinaldi","43.753443850295","11.1544049184614","SCD425"
"SCD432_600","Case Margheri","43.7521164552912","11.1347060597187","SCD432"
"SCD433_600","Valimorta","43.7521507398","11.1350395349169","SCD433"
"SCD434_600","Stagnaccio Basso Mattarella","43.776087683197","11.1352250680064","SCD434"
"SCD437_600","San Colombano La Fiorita","43.7780668184101","11.1439658765282","SCD437"
"SCD438_600","Cimitero San Colombano","43.7803042461733","11.138679178663","SCD438"
"SCD439_600","San Colombano","43.7781067330915","11.1360673696655","SCD439"
"SCD442_600","Barontini Pisana","43.7691900240888","11.1335895933166","SCD442"
"SCD443_600","Pisana Meucci","43.7684661251812","11.138117306909","SCD443"
"SCD444_600","Pisana Di Castelpulci","43.7679628836581","11.1433516444293","SCD444"
"SCD445_600","Pisana Pieve A Settimo","43.7672883680941","11.1473870638535","SCD445"
"SCD446_600","Pisana Parlamento Europeo","43.7660626234067","11.1548657849986","SCD446"
"SCD447_600","Pisana Olmo","43.7658948358837","11.1566005576537","SCD447"
"SCD448_600","Pisana Di Porto","43.7665607967418","11.1523196599077","SCD448"
"SCD449_600","Pisana Della Pieve","43.7674802544347","11.1469979179629","SCD449"
"SCD450_600","Pisana Viottolone","43.7679678613391","11.1440460166282","SCD450"
"SCD451_600","Pisana Le Fornaci","43.7685787136212","11.1378743885323","SCD451"
"SCD452_600","Barontini Gozzoli","43.769048677902","11.1336855140014","SCD452"
"SCD458_600","Badia A Settimo","43.7804482584221","11.1461231548404","SCD458"
"SCD459_600","Stagnaccio Basso Del Cini","43.7748737729733","11.1368267426934","SCD459"
"SCD460_600","Stagnaccio Basso Europa","43.7724543114476","11.1388589563997","SCD460"
"SCD461_600","La Comune Borsellino","43.7765877446336","11.1474543723228","SCD461"
"SCD462_600","La Comune Falcone","43.7758707794164","11.1491931519768","SCD462"
"SCD468_600","Pisana Capannuccia","43.7687545921796","11.1299043020153","SCD468"
"SCD469_600","Amendola Di San Giusto","43.7593452486413","11.1983803812874","SCD469"
"SCD473_600","Cioppi","43.7522730517168","11.1871180978228","SCD473"
"SCD484_600","Settantottesimo Reggimento","43.7595443030159","11.1814203668014","SCD484"
"SCD486_600","Scuola Pettini","43.7686938368288","11.1481696263947","SCD486"
"SCD492_600","Pisana Barontini","43.7683411868972","11.1339647445167","SCD492"
"SCD493_600","Costituzione Sette Regole","43.755262811421","11.1743522403075","SCD493"
"SCD494_600","Costituzione T1 Villa Costanza","43.7550043886936","11.1746844664235","SCD494"
"SCD495_600","Don Perosi Ponchielli","43.7599108610461","11.1728156656861","SCD495"
"SCD497_600","Pestalozzi Romero","43.7652160936607","11.1875608639708","SCD497"
"SCD498_600","Newton Deposito At","43.7621850038382","11.1627643751668","SCD498"
"SCD499_600","Don Perosi Cristofori","43.7603167021831","11.1725430900459","SCD499"
"SCD500_600","Pisana Don Milani","43.7686137254174","11.130216118225","SCD500"
"SCD505_600","Pacchi Socet","43.7498851876926","11.1737411951884","SCD505"
"SCD521_600","Vivaldi Asl","43.7634740774598","11.1814343332078","SCD521"
"SCD529_600","Prati Rialdoli","43.7642047410987","11.185366522505","SCD529"
"SCD552_600","Buonriposo","43.7017062196999","11.1208808550298","SCD552"
"SCD554_600","Via Del Poggio","43.7017065168708","11.1211073545336","SCD554"
"SCD559_600","Vivaldi Donizetti","43.7614761340981","11.1798809180632","SCD559"
"SCD638_600","Via San Niccolo'","43.70206490878","11.100734304363","SCD638"
"SCD642_600","Via Canto Alle Gracchie","43.6950790123058","11.1097241572294","SCD642"
"SCD643_600","L'Opia","43.6990092848745","11.1188177398111","SCD643"
"SCD644_600","Il Poggetto","43.7031576792286","11.1227191805974","SCD644"
"SCD645_600","La Fornace","43.7048804299024","11.1276373555191","SCD645"
"SCD663_600","Pisana Ponchielli","43.7637529164088","11.1755465681843","SCD663"
"SCD664_600","Pisana Dei Rossi","43.7667889117198","11.1879453431564","SCD664"
"SCD668_600","Empolese Borro Dell'Ermellino","43.688401672697","11.1226921335558","SCD668"
"SCD683_600","Empolese Castellare","43.6885801710057","11.122510331263","SCD683"
"SCD706_600","Empolese Molinuzzo","43.6924093766712","11.1136244972617","SCD706"
"SCD710_600","Triozzi Basso","43.7529296784321","11.154456332706","SCD710"
"SCD721_600","Via Delle Caselle","43.7455531500969","11.1414260291387","SCD721"
"SCD722_600","Roma Ponte A Vingone","43.7463401209897","11.1800308442398","SCD722"
"SCD723_600","Macinuzze","43.7427556307277","11.1758366479941","SCD723"
"SCD724_600","Fosso Di Ghindossoli","43.7396992523703","11.1736908801084","SCD724"
"SCD725_600","Ballatoio","43.737949277593","11.169363570303","SCD725"
"SCD726_600","Lo Spicchio","43.7354853089772","11.1651706514515","SCD726"
"SCD727_600","Gli Alberi","43.7359781879464","11.1617270605983","SCD727"
"SCD728_600","Il Melarancio","43.7335159908284","11.1571869851705","SCD728"
"SCD729_600","Le Danici","43.7338600104095","11.1523132530171","SCD729"
"SCD730_600","Pisana Respighi","43.765208131164","11.1698053308566","SCD730"
"SCD731_600","Newton Codignola","43.7609365858339","11.1671632556748","SCD731"
"SCD732_600","Bachelet Di Casellina","43.7604092681724","11.1671954559033","SCD732"
"SCD733_600","Torricelle","43.7577437938951","11.1630006756756","SCD733"
"SCD735_600","Via San Martino","43.7519280516398","11.1524253044132","SCD735"
"SCD736_600","Le Corti","43.7509638096469","11.1479359829329","SCD736"
"SCD737_600","Caduta","43.7495558611021","11.1449921269923","SCD737"
"SCD738_600","Fabbrica","43.7480589087445","11.1422388616795","SCD738"
"SCD739_600","Caselle","43.7441892464668","11.1426193020642","SCD739"
"SCD740_600","Podere Oliveta","43.7425331869139","11.1476589337035","SCD740"
"SCD741_600","Via Di Triozzi","43.7410392294298","11.1496952254732","SCD741"
"SCD742_600","Coltinuova","43.7380361646792","11.1507197474497","SCD742"
"SCD743_600","Podere Cortenuova","43.7347977661968","11.1510446018403","SCD743"
"SCD745_600","Sevoli","43.7321847037219","11.14971712778","SCD745"
"SCD746_600","Pian Dei Cerri","43.7234224673032","11.1459786952024","SCD746"
"SCD747_600","Oratorio","43.7072893272622","11.1358180018373","SCD747"
"SCD748_600","San Michele A Torri","43.7052665639205","11.131797873834","SCD748"
"SCD749_600","Canto Alle Gracchie","43.7049371248939","11.1277355470232","SCD749"
"SCD750_600","Casa Al Vento","43.7032922133472","11.1228634877718","SCD750"
"SCD751_600","Il Poggio","43.6991727993047","11.1188803994805","SCD751"
"SCD752_600","Podere Certano","43.6951738900573","11.1097057691563","SCD752"
"SCD754_600","Empolese Del Lago","43.698248659983","11.1002687507102","SCD754"
"SCD755_600","Empolese Pieve San Vincenzo","43.6994731445043","11.0982145350922","SCD755"
"SCD756_600","Empolese San Vincenzo","43.7002267476252","11.0961543853521","SCD756"
"SCD757_600","Cimitero San Niccolo'","43.7020325896617","11.100778163196","SCD757"
"SCD758_600","Il Chianti","43.7040767438073","11.1036963152778","SCD758"
"SCD759_600","San Niccolo' A Torri","43.7079797707214","11.1063865722027","SCD759"
"SCD760_600","I Lami","43.7123417508203","11.1110358556711","SCD760"
"SCD761_600","Partingoli","43.71342678711","11.1139521733575","SCD761"
"SCD762_600","Peccioli Di Sopra","43.7144194609921","11.1186900531649","SCD762"
"SCD763_600","Roncigliano","43.7213870742937","11.1303740211811","SCD763"
"SCD764_600","Santa Maria A Marciola","43.7215095890681","11.1317703341322","SCD764"
"SCD765_600","La Racchetta","43.7225984555282","11.1373428000935","SCD765"
"SCD766_600","Villa Torrigiani","43.7456742680473","11.1414489778708","SCD766"
"SCD767_600","Empolese Vezzosi","43.7002335554807","11.0962740694832","SCD767"
"SCD768_600","Empolese Riuccio","43.7027994571499","11.0913682485667","SCD768"
"SCD770_600","Caduti Di Mosciano","43.733849608301","11.1521346592247","SCD770"
"SCD771_600","Mosciano","43.7335305787488","11.1573833239289","SCD771"
"SCD772_600","Ragnaia","43.7359299134747","11.1618991670399","SCD772"
"SCD773_600","Di Porto Di Grioli","43.7750876919873","11.1429507722645","SCD773"
"SCD774_600","La Costa","43.7380768532074","11.1695202971477","SCD774"
"SCD775_600","Perticuzzo","43.7396612264128","11.1737966106356","SCD775"
"SCD776_600","Villa Il Diluvio","43.7427357746899","11.1759337267499","SCD776"
"SCD778_600","17 Marzo Montalcini","43.7710493570416","11.1594602647174","SCD778"
"SCD779_600","Primo Maggio Di Porto","43.7685851108046","11.1569333193867","SCD779"
"SCD780_600","Pretale","43.7347950489874","11.1511889164237","SCD780"
"SCD781_600","La Navicella","43.7379533182243","11.1508161234929","SCD781"
"SCD782_600","Calle","43.7409783807489","11.1498719229312","SCD782"
"SCD783_600","Casavecchia","43.7425997559688","11.1474306352082","SCD783"
"SCD784_600","Fontanaccio","43.7440138414814","11.1428505585133","SCD784"
"SCD785_600","San Martino Alla Palma","43.7482174315212","11.142427712452","SCD785"
"SCD786_600","Falcona","43.7494315561417","11.1448991917139","SCD786"
"SCD787_600","Citille","43.7508852680665","11.1477939387492","SCD787"
"SCD788_600","Via Di Citille","43.7520327289564","11.1525814603402","SCD788"
"SCD789_600","Villa Antinori","43.7536436592199","11.1558547990951","SCD789"
"SCD790_600","Ponte Del Ristoro","43.7578387926596","11.1631864784858","SCD790"
"SCD791_600","Bachelet Newton","43.7601641069615","11.1670670366623","SCD791"
"SCD792_600","Newton Bachelet","43.7609769611141","11.1669333427476","SCD792"
"SCD793_600","Ponchielli Donizetti","43.7617220084132","11.1746329128759","SCD793"
"SCD794_600","Otto Marzo Borgo Ai Fossi","43.7703014722091","11.1523895739681","SCD794"
"SCD802_600","Borgo Ai Fossi Pratoni","43.7719636940259","11.1529949642467","SCD802"
"SCD805_600","Botteghino Della Pieve","43.7753222283972","11.1508323121273","SCD805"
"SCD806_600","La Comune Botteghino","43.7760997744424","11.1489854599671","SCD806"
"SCD807_600","La Comune Dalla Chiesa","43.7771094557338","11.1462444974993","SCD807"
"SCD808_600","Borgo Ai Fossi Otto Marzo","43.7720494091826","11.1527464362881","SCD808"
"SCD810_600","Otto Marzo Di Porto","43.7701553039169","11.152628769599","SCD810"
"SCD811_600","Primo Maggio Nazioni Unite","43.7683385177417","11.157595357187","SCD811"
"SCD812_600","Montalcini Nazioni Unite","43.7713404001083","11.1578757136048","SCD812"
"SCD813_600","Montalcini 17 Marzo","43.771514604845","11.1577095859388","SCD813"
"SCD819_600","Spontini","43.765735929925","11.1741227550709","SCD819"
"SCD822_600","Pisana Interna","43.7640902691906","11.1760339884643","SCD822"
"SCD823_600","Pestalozzi Dei Rossi","43.7640583671893","11.1893390111339","SCD823"
"SCD828_600","Pestalozzi Frazzi","43.7653581199653","11.1874350521875","SCD828"
"SCD841_600","Scuola Spinelli","43.7598387493034","11.1921687584492","SCD841"
"SCD843_600","Scuola Campana","43.7616121274467","11.1913088342551","SCD843"
"SCD858_600","Pisana Granatieri","43.7684519404775","11.1338195938464","SCD858"
"SCD859_600","Empolese Borro Di Ritortolo","43.7043019870577","11.0889662482645","SCD859"
"SCD860_600","Empolese Campo Sportivo","43.6985341404005","11.1000727061656","SCD860"
"SCD869_600","Pergoletta","43.7051821423371","11.131699625833","SCD869"
"SCD870_600","La Palazzina","43.7073705085039","11.1359256388798","SCD870"
"SCD871_600","Donizetti Cilea","43.7599268573708","11.1800103568773","SCD871"
"SCD872_600","San Bartolo Manzoni","43.75309827351","11.1853983615866","SCD872"
"SCD873_600","Boccaccio Colombo","43.7560648647757","11.181397936291","SCD873"
"SCD874_600","San Bartolo Giovanni Xxiii","43.7543026190593","11.1831551531713","SCD874"
"SCD876_600","Giotto Delle Cascine","43.749758874988","11.181581764343","SCD876"
"SCD878_600","Masaccio Pacchi","43.7508088147224","11.1775164988657","SCD878"
"SCD879_600","Pisana Del Pantano","43.7645625215556","11.1810142398024","SCD879"
"SCD880_600","Pisana Buon Pastore","43.7641959313178","11.176158947113","SCD880"
"SCD881_600","Baccio Cimarosa","43.7652108303541","11.1715586919693","SCD881"
"SCD882_600","Pisana Bassa","43.7652848633652","11.1686092383774","SCD882"
"SCD883_600","Pisana Darwin","43.7654219225576","11.1639927029944","SCD883"
"SCD884_600","Pisana San Paolo","43.7654847153763","11.1604371145283","SCD884"
"SCD885_600","Nazioni Unite 2 Giugno","43.7665671551262","11.1580057487224","SCD885"
"SCD886_600","Fonte Del Brecca","43.7227487258725","11.1412184274788","SCD886"
"SCD887_600","Poggio Alle Calle","43.7225240936279","11.1372268715262","SCD887"
"SCD888_600","Marciola","43.7215300727102","11.1316376054086","SCD888"
"SCD889_600","Masaccio Fanfani","43.7510975434511","11.1767755283734","SCD889"
"SCD890_600","Villa Cipriani","43.7214221684838","11.1304233711738","SCD890"
"SCD891_600","Giotto Cimabue","43.7498355843183","11.1818081170883","SCD891"
"SCD892_600","Manzoni","43.7528394539059","11.1848082613117","SCD892"
"SCD893_600","San Bartolo Foscolo","43.7541091213708","11.1835514931695","SCD893"
"SCD894_600","Boccaccio Carducci","43.7561454092859","11.1821306323926","SCD894"
"SCD895_600","Podere Bruciatella","43.7145207938016","11.1185663914911","SCD895"
"SCD896_600","Donizetti Vivaldi","43.7603323607585","11.1795204245272","SCD896"
"SCD897_600","Podere Ronco Vecchio","43.7134376783199","11.1138501508936","SCD897"
"SCD898_600","Borro Di Faeta","43.7123960812793","11.111019144716","SCD898"
"SCD899_600","17 Marzo Pace Mondiale","43.7711605528298","11.1592934275704","SCD899"
"SCD900_600","Podere Cipresseto","43.7079899976213","11.1063202178114","SCD900"
"SCD902_600","Podere Cosalza","43.7041091782126","11.1036462551717","SCD902"
"SCD903_600","Scuola Xxv Aprile","43.7505836581031","11.1756297394147","SCD903"
"SCD904_600","Pisana Charta '77","43.7653741955149","11.1598538886753","SCD904"
"SCD905_600","Pisana Del Piscetto","43.7653048413958","11.1647074284388","SCD905"
"SCD906_600","Pisana Codignola","43.7651617680749","11.1670301146265","SCD906"
"SCD907_600","Pisana Da Palestrina","43.7649189167743","11.1710480847278","SCD907"
"SCD908_600","Newton Charta '77","43.7622475609508","11.1627272492845","SCD908"
"SCD909_600","Pisana Vivaldi","43.7646193639287","11.1815738038785","SCD909"
"SCD910_600","Pisana Pestalozzi","43.7654495827149","11.1844430751617","SCD910"
"SCD914_600","Monte Cioppoli","43.7152178224141","11.1417864734615","SCD914"
"SCD915_600","Baggiolo","43.7154393902242","11.1419743596576","SCD915"
"SCD916_600","Lupi Di Toscana","43.7593367617601","11.1819159244581","SCD916"
"SCD917_600","Dell'Arrigo San Polo","43.7348691511281","11.1717807760406","SCD917"
"SCD918_600","Piazza Matteotti","43.7541111604901","11.1903353911727","SCD918"
"SCD919_600","Dei Rossi","43.7561758976785","11.1878332560599","SCD919"
"SCD920_600","Turri T1 Resistenza","43.7584256198055","11.1841296408997","SCD920"
"SCD921_600","Donizetti Scarlatti","43.7613049741484","11.1771473041253","SCD921"
"SCD922_600","Lamperi","43.7348590627764","11.1718378407985","SCD922"
"SCD923_600","Fosso Di Mosciano","43.7325467147683","11.1693857488274","SCD923"
"SCD924_600","Borronaccia","43.7325055196133","11.1694215112418","SCD924"
"SCD925_600","Villa Bianca","43.730597443489","11.1665387591582","SCD925"
"SCD926_600","La Massa","43.7307273456738","11.1668103952429","SCD926"
"SCD927_600","Di Vittorio","43.7636876806768","11.1725874903756","SCD927"
"SCD928_600","Donizetti Ponchielli","43.7623525517488","11.1743808445083","SCD928"
"SCD929_600","Donizetti Acciaiolo","43.7612546866247","11.1769513757033","SCD929"
"SCD930_600","Turri Foscolo","43.7576161652357","11.1857321728236","SCD930"
"SCD931_600","Alfieri","43.7557701647632","11.1873930298003","SCD931"
"SCD932_600","Aleardi Piave","43.7546182361827","11.1883059366399","SCD932"
"SCD939_600","Terra Rossa","43.7277942448355","11.163375642273","SCD939"
"SCD940_600","Via Di Legnaia","43.7277531102392","11.1634083043663","SCD940"
"SCD941_600","Poggio All'Arrigo","43.7262145824161","11.1609722527574","SCD941"
"SCD942_600","La Montaia","43.7261778592086","11.1610097301188","SCD942"
"SCD965_600","Podere Del Leone","43.7238691735967","11.1559669384769","SCD965"
"SCD997_600","Dell'Arrigo Delle Croci","43.7238237764045","11.1559870357692","SCD997"
"SCP669_600","Cerbaia","43.6846933573949","11.1272757894057","SCP669"
"SFN001_600","Gramsci Cimitero","43.8294425264198","11.2095451293175","SFN001"
"SFN005_600","Gramsci Ragionieri","43.8222674551663","11.2197275110919","SFN005"
"SFN006_600","Gramsci Quinto Basso","43.8244482322017","11.2168455351399","SFN006"
"SFN008_600","Gramsci Presidio Asl","43.8318348604741","11.205019130949","SFN008"
"SFN010_600","Giulio Cesare","43.8375990137284","11.1920528957435","SFN010"
"SFN011_600","Fermi Del Cantone","43.809909277665","11.1819232073905","SFN011"
"SFN012_600","Giusti Istituto D'Arte","43.8291364388113","11.2046507959422","SFN012"
"SFN013_600","Polo Scientifico Madonna Del Piano","43.8165031152981","11.2028614831698","SFN013"
"SFN014_600","Vittorio Veneto Municipio","43.8319647567005","11.1994488835743","SFN014"
"SFN015_600","Mazzini Cairoli","43.8341150039155","11.1955524689291","SFN015"
"SFN018_600","Di Vittorio Pratese","43.8431438910782","11.1870811401823","SFN018"
"SFN019_600","Gramsci Termine","43.8220247787615","11.2197060801383","SFN019"
"SFN020_600","Pratese Nievo","43.8418378132233","11.1860397823479","SFN020"
"SFN021_600","Pratese Oriani","43.8402869740936","11.1890017188453","SFN021"
"SFN022_600","Mazzini Presciani","43.83605339029","11.1918983373308","SFN022"
"SFN023_600","Sesto Fs","43.8336617747885","11.1926460732566","SFN023"
"SFN024_600","Gramsci Giulio Cesare","43.8379163813247","11.1935773607087","SFN024"
"SFN025_600","Togliatti Di Padule","43.8354480810874","11.1849575011185","SFN025"
"SFN026_600","Gramsci Calamandrei","43.8291814851392","11.2097748400537","SFN026"
"SFN027_600","Gramsci Leoncavallo","43.8244167055941","11.2166143064811","SFN027"
"SFN029_600","Gramsci Querceto","43.8363342017379","11.1964967766998","SFN029"
"SFN030_600","Piazza Ginori","43.833654206629","11.2012506812588","SFN030"
"SFN031_600","Gramsci Parco Bardo","43.8303630660027","11.2078021079306","SFN031"
"SFN046_600","Bolognese Di Bellosguardo","43.8373154382112","11.2895799913886","SFN046"
"SFN052_600","Vittorio Emanuele Berlinguer","43.8451326637762","11.1794642864067","SFN052"
"SFN064_600","Pratese Museo Di Doccia","43.8390655226291","11.1911690349329","SFN064"
"SFN067_600","Lucchese Ponte Di Maccione","43.8120526474241","11.1582156944222","SFN067"
"SFN068_600","Santa Croce All'Osmannoro","43.8104314429689","11.1660762779243","SFN068"
"SFN069_600","Lucchese Casa Bianca","43.8093516800512","11.1707850141842","SFN069"
"SFN070_600","Lucchese Torta","43.8083406953077","11.1732891980125","SFN070"
"SFN071_600","Lucchese Casa Rossa","43.8072609708909","11.1763741203607","SFN071"
"SFN110_600","Marconi Fermi","43.8085354003879","11.1850294006216","SFN110"
"SFN112_600","Arno Volturno","43.8119178689043","11.1766888955475","SFN112"
"SFN113_600","Arno","43.8128761054918","11.1743582667552","SFN113"
"SFN115_600","Ingromarket","43.8136722042159","11.1703711326597","SFN115"
"SFN116_600","Senna","43.8119505218154","11.1688183264704","SFN116"
"SFN120_600","Lucchese Nobel","43.804778995181","11.1817501056836","SFN120"
"SFN122_600","Biondi Fratelli Rosselli","43.8339088436737","11.2146274960022","SFN122"
"SFN124_600","Cerreti Bixio","43.8367698686222","11.2106408885691","SFN124"
"SFN125_600","Biondi Della Fabbrica","43.8355275978976","11.2161162130654","SFN125"
"SFN126_600","Don Minzoni Vannini","43.8363409477362","11.2017583994287","SFN126"
"SFN127_600","Sauro Di Querceto","43.8379183291465","11.1986274908543","SFN127"
"SFN128_600","Olmo Oleandri","43.841100938274","11.1966390783034","SFN128"
"SFN129_600","Gramsci Imbriani","43.8349880932397","11.1988416849606","SFN129"
"SFN130_600","Donatello Viviani","43.8399012634658","11.1950028533903","SFN130"
"SFN132_600","Lucchese Righi","43.8051306809166","11.1813342145632","SFN132"
"SFN133_600","Lucchese Cantone","43.8062276001872","11.1792902376725","SFN133"
"SFN134_600","Lucchese Tevere","43.8082476867475","11.1736821071473","SFN134"
"SFN135_600","Lucchese Ponte All'Asse","43.8093381094526","11.1710253426118","SFN135"
"SFN136_600","Lucchese Ingromarket","43.8102673871686","11.1680798023014","SFN136"
"SFN137_600","Lucchese Motorizzazione","43.8113832947139","11.1631205434131","SFN137"
"SFN138_600","Lucchese Fosso Reale","43.8120509901688","11.1585226105092","SFN138"
"SFN140_600","Gramsci La Mula","43.8267013837955","11.2137095932618","SFN140"
"SFN143_600","Primo Maggio Manin","43.8351471280379","11.2083330488635","SFN143"
"SFN144_600","Primo Maggio Cavour","43.8371823722256","11.2071440898439","SFN144"
"SFN145_600","Pasolini Centro Commerciale","43.8200681325312","11.2069190442908","SFN145"
"SFN146_600","Olmo Querceto","43.84053446317","11.1999971208624","SFN146"
"SFN148_600","Polo Scientifico Dipartimento Fisica","43.8199024077075","11.1932438362641","SFN148"
"SFN149_600","Polo Scientifico Fisica Nucleare","43.8190705406252","11.1950692427584","SFN149"
"SFN150_600","Polo Scientifico Dipartimento Agraria","43.8178836545096","11.1976474109592","SFN150"
"SFN151_600","Polo Scientifico Cnr","43.8178344295074","11.2001204837191","SFN151"
"SFN152_600","Primo Maggio Repubblica","43.836522355481","11.207608760999","SFN152"
"SFN153_600","Repubblica Primo Settembre","43.8347005812015","11.2067478441544","SFN153"
"SFN154_600","Gramsci Machiavelli","43.8319011031245","11.2047124415988","SFN154"
"SFN156_600","Gramsci Paganini","43.8283100404235","11.2115382034802","SFN156"
"SFN157_600","Gramsci Della Gora","43.8261834197888","11.2141878871308","SFN157"
"SFN158_600","Pasolini Termine","43.8177346003122","11.2109893656454","SFN158"
"SFN159_600","Gramsci Costituzione","43.8237284079046","11.2177500014402","SFN159"
"SFN161_600","Polo Scientifico Incubatore","43.8167207690869","11.2023130598409","SFN161"
"SFN219_600","Del Cantone Casa Rossa","43.8078914176543","11.1786778575393","SFN219"
"SFN220_600","Di Querceto Conti","43.8386720725184","11.1992273625001","SFN220"
"SFN225_600","Togliatti Parri","43.8393112494225","11.1757227451086","SFN225"
"SFN229_600","Donatello Buonarroti","43.838920488736","11.1968451364782","SFN229"
"SFN244_600","Pasolini Frilli","43.8179647920469","11.2105673842717","SFN244"
"SFN246_600","Pasolini Neruda","43.8218883469866","11.2035010279834","SFN246"
"SFN252_600","Polo Scientifico Dipartimento Chimica","43.8209806449904","11.1932118243329","SFN252"
"SFN253_600","Polo Scientifico Plesso Aule","43.8209424846462","11.1922964513633","SFN253"
"SFN256_600","Pasolini Polo Scientifico","43.8213207960671","11.2044516372853","SFN256"
"SFN257_600","Pasolini Gandhi","43.8197203706326","11.2074294842401","SFN257"
"SFN262_600","Querciola De Gasperi","43.8315171400304","11.1850067956266","SFN262"
"SFN263_600","Querciola Nenni","43.83218143183","11.1808691848099","SFN263"
"SFN278_600","Righi Edison","43.8066206259229","11.1829906411466","SFN278"
"SFN300_600","Volturno","43.8106723188516","11.1776012210798","SFN300"
"SFN332_600","Pisa Scarpettini","43.8417568804754","11.197255865486","SFN332"
"SFN333_600","Caduti Lager Di Vittorio","43.8428750919335","11.1933389569299","SFN333"
"SFN359_600","Dante Del Molino","43.8333627627298","11.2663384008926","SFN359"
"SFN360_600","Dante Della Collinuzza","43.8367913464339","11.268239194791","SFN360"
"SFN361_600","Dante Segalari","43.8420614599699","11.2694418199485","SFN361"
"SFN362_600","Dante Cercina","43.8411486299613","11.2655354946826","SFN362"
"SFN363_600","Cercina","43.845046614755","11.262380258927","SFN363"
"SFN364_600","Della Docciola Vecchia Di Cercina","43.8472682481898","11.2679396391212","SFN364"
"SFN365_600","Della Docciola Del Pian Di Selva","43.8497995422533","11.270817724056","SFN365"
"SFN366_600","Della Docciola Circolo","43.8507561603962","11.2720623907282","SFN366"
"SFN367_600","Della Docciola Sesto","43.8509199780232","11.273783949829","SFN367"
"SFN368_600","Della Docciola Vallecchio","43.8486056356701","11.2758420171439","SFN368"
"SFN369_600","Della Docciola La Torre","43.8447947976431","11.2782208182002","SFN369"
"SFN370_600","Della Docciola Di Canonica","43.8401815106913","11.279752433945","SFN370"
"SFN371_600","Della Docciola Di Montorsoli","43.8368890712322","11.2841188045976","SFN371"
"SFN372_600","Caduti Di Montorsoli","43.8355854111707","11.2865022459854","SFN372"
"SFN375_600","Della Docciola Dei Cipressini","43.8356079024796","11.2865031052227","SFN375"
"SFN376_600","Della Docciola Di Bellosguardo","43.8369208076426","11.284107577487","SFN376"
"SFN377_600","Della Docciola Di Feliceto","43.8401806424267","11.2797959374009","SFN377"
"SFN378_600","Della Docciola Valle","43.8448162043499","11.2782760581905","SFN378"
"SFN379_600","Della Docciola Monte","43.848627910369","11.2758537501941","SFN379"
"SFN380_600","Della Docciola Cerretino","43.850978981662","11.2737597549293","SFN380"
"SFN381_600","Della Docciola Di Castiglioni","43.8508629448563","11.2721255424689","SFN381"
"SFN382_600","Della Docciola Fondi","43.8498596237986","11.2708053989667","SFN382"
"SFN383_600","Della Docciola Di Serravalle","43.8473448428794","11.2679363224342","SFN383"
"SFN384_600","Caduti Di Radio Cora","43.8450795187227","11.2623099728942","SFN384"
"SFN385_600","Dante Delle Pratacce","43.8411314070728","11.2654959700893","SFN385"
"SFN386_600","Dante Del Pian Di Selva","43.8420498172026","11.2693480828641","SFN386"
"SFN387_600","Dante Belvedere","43.8368056138842","11.2682008036013","SFN387"
"SFN388_600","Dante Delle Masse","43.8333768125205","11.2663109482607","SFN388"
"SFN432_600","Dell'Osmannoro Ariosto","43.8263670239679","11.1982093957791","SFN432"
"SFN435_600","Dell'Osmannoro Pasolini","43.826190779507","11.1979559062605","SFN435"
"SFN552_600","Neruda Mille","43.8238557706873","11.2025584303061","SFN552"
"SFN593_600","Biblioteca Di Doccia","43.8365458485628","11.214446762175","SFN593"
"SFN609_600","Olmi Baldanzese","43.8432541010293","11.1610535437349","SFN609"
"SFN614_600","Primo Settembre","43.8340556725004","11.2068080851184","SFN614"
"SFN619_600","Ginori San Romolo","43.8393570809813","11.2096856330587","SFN619"
"SFN620_600","Michelangelo","43.8369517917808","11.1957498178341","SFN620"
"SFN621_600","Ferraris Mazzini","43.835596324259","11.1943677238145","SFN621"
"SFN642_600","Cavour Scuole","43.8385943410277","11.2067592526112","SFN642"
"SFN643_600","Giotto Battisti","43.8392411689234","11.2113862328837","SFN643"
"SFN644_600","Pepe Romei","43.8378252484474","11.2106158248783","SFN644"
"SFN645_600","Bassi Bencini","43.8372579429791","11.2088518740949","SFN645"
"SFN646_600","Del Cantone Lucchese","43.8036927192309","11.1752961189808","SFN646"
"SFN650_600","Dell'Osmannoro Consorzio Agrario","43.8188024590885","11.1886291771194","SFN650"
"SFN654_600","Dell'Osmannoro Polo Scientifico","43.8191093193205","11.1888253568694","SFN654"
"SFN656_600","Del Cantone Maiorana","43.8054155888746","11.1767821096322","SFN656"
"SFN750_600","San Piero A Quaracchi","43.8014935611978","11.1834439095524","SFN750"
"SFN758_600","Neruda Pasolini","43.823666107519","11.2023555930428","SFN758"
"SFN829_600","Togliatti Risorgimento","43.8368933171077","11.1816503489481","SFN829"
"SFN830_600","Togliatti Volpaia","43.838589772588","11.177675826751","SFN830"
"SFN831_600","Cafiero Gori","43.8384864328697","11.2046273834815","SFN831"
"SFN832_600","Togliatti Chini","43.837855107963","11.1791386128791","SFN832"
"SFN833_600","Togliatti Fattori","43.8367644190129","11.181799574859","SFN833"
"SFN835_600","Uccellatoio Fontesecca","43.8561041279503","11.2901877786313","SFN835"
"SFN839_600","Di Vittorio Calamandrei","43.8431285998159","11.1872681790438","SFN839"
"SFN840_600","Caduti Lager Pisa","43.8426284790918","11.1945743691867","SFN840"
"SFN841_600","Arno Ticino","43.8108447325404","11.1784324764722","SFN841"
"SFN842_600","Cafiero Querceto","43.8398928764323","11.2012179366443","SFN842"
"SFN843_600","Cafiero Cavour","43.8383396211554","11.2047969918579","SFN843"
"SFN844_600","Tevere","43.809704631688","11.1723471677891","SFN844"
"SFN845_600","Tevere Adige","43.8088564091099","11.176231105335","SFN845"
"SFN846_600","Motorizzazione Civile","43.8123149886694","11.1652678402543","SFN846"
"SFN849_600","Ikea","43.8070482300893","11.1872300456171","SFN849"
"SFN850_600","Fermi Avogadro","43.8100384231629","11.181525337716","SFN850"
"SFN854_600","Osmannoro Piazza Marconi","43.8076528899158","11.1848029606227","SFN854"
"SFN856_600","Nobel","43.8064503512081","11.1864659653043","SFN856"
"SFN875_600","Del Risorgimento Agnoletti","43.8364177725388","11.1803574091345","SFN875"
"SFN876_600","Del Risorgimento San Bartolomeo","43.8363133001091","11.1772531231395","SFN876"
"SFN879_600","Chini Signorini","43.8389457821669","11.1777364836753","SFN879"
"SFN881_600","Chini Del Pino","43.840368990401","11.1803399030009","SFN881"
"SFN882_600","Del Prato Di Padule","43.8380354263253","11.1840755275362","SFN882"
"SFN886_600","Pratese Coculia","43.8391823061576","11.1911826398769","SFN886"
"SFN890_600","Calamandrei Togliatti","43.8354744098672","11.1871102472121","SFN890"
"SFN894_600","Olmo Sanzio","43.8412764905756","11.1982461494903","SFN894"
"SFN943_600","Pratese Stadio","43.8402281452785","11.189229129677","SFN943"
"SFN944_600","Pratese Di Vittorio","43.8423105503105","11.1853309592592","SFN944"
"SFN946_600","Mille Xxx Novembre","43.8294011619545","11.2077310645205","SFN946"
"SFN947_600","Mille Giusti","43.8275782722891","11.2058463863339","SFN947"
"SFN948_600","Mille Ariosto","43.825242838516","11.2036975978486","SFN948"
"SFN949_600","Ariosto Petrarca","43.8253716429539","11.2021540619067","SFN949"
"SFN950_600","Ariosto Pavese","43.82649237797","11.1998276809224","SFN950"
"SFN951_600","Ariosto Di Rimaggio","43.8284804445332","11.1959381786964","SFN951"
"SFN952_600","Ariosto Sesto Fs","43.8308530286804","11.1919442232145","SFN952"
"SFN953_600","Ariosto Querciola","43.8332390720677","11.1884153634981","SFN953"
"SFN968_600","Togliatti Interna","43.836912906333","11.1822745359968","SFN968"
"SFN969_600","Togliatti Ariosto","43.8353466160991","11.1850843965826","SFN969"
"SFN970_600","Ariosto Tassoni","43.8328116850751","11.1888708714143","SFN970"
"SFN971_600","Ariosto Ciompi","43.8300287580973","11.1931406970233","SFN971"
"SFN972_600","Ariosto San Lorenzo","43.8287440083312","11.1953415588977","SFN972"
"SFN973_600","Ariosto Osmannoro","43.8262778749497","11.2002131550513","SFN973"
"SFN974_600","Ariosto Mille","43.825292832084","11.2022724137325","SFN974"
"SFN975_600","Mille Zambra Fs","43.8258456500162","11.2044192504492","SFN975"
"SFN976_600","Mille Gramsci","43.8285986728054","11.2070887808733","SFN976"
"SFN978_600","Querciola Garibaldi","43.8344976772611","11.1885555336573","SFN978"
"SFN985_600","Pratese Leopardi","43.8435222965708","11.1824642521007","SFN985"
"SFN992_600","Piazza Lavagnini","43.8311186226654","11.2010751079837","SFN992"
"SFN999_600","Presciani Scuole","43.8364543657825","11.1930542325956","SFN999"
"SIG138_600","Piazza Pratelli","43.7752384837902","11.0932973417911","SIG138"
"SIG139_600","Gobetti La Pira","43.7934958586116","11.1031977785112","SIG139"
"SIG140_600","La Pira Dei Colli","43.7947403935447","11.1013738936685","SIG140"
"SIG171_600","Pistoiese Indicatorio","43.8057432598003","11.1176756813794","SIG171"
"SIG172_600","Pistoiese Primo Maggio","43.8046071549246","11.1247961716488","SIG172"
"SIG173_600","Pistoiese San Piero","43.8025724587388","11.1332456432247","SIG173"
"SIG174_600","Pistoiese Bruno","43.8012232470237","11.1367886089992","SIG174"
"SIG197_600","Pistoiese Mammoli","43.8099708131018","11.0865830616698","SIG197"
"SIG198_600","Pistoiese Dei Sodi","43.8089675003463","11.0922127160806","SIG198"
"SIG199_600","Pistoiese Tiziano","43.8074690793644","11.1034535569838","SIG199"
"SIG200_600","Pistoiese Dei Colli","43.8064097135571","11.1120721808756","SIG200"
"SIG202_600","Piazza Moro","43.7967906296015","11.1258444061991","SIG202"
"SIG203_600","Fedi Della Chiesa","43.7948852030824","11.1276008790866","SIG203"
"SIG204_600","Balduccia Del Metolo","43.7932166161569","11.1243721828727","SIG204"
"SIG206_600","Xx Settembre Scuole","43.7844740812555","11.0926705727858","SIG206"
"SIG207_600","Alberti Cimitero","43.7836327809461","11.0892670693544","SIG207"
"SIG208_600","Garibaldi Della Redina","43.7809776500996","11.0908709474607","SIG208"
"SIG209_600","Garibaldi Alighieri","43.7787659775934","11.0931548431625","SIG209"
"SIG216_600","Centro Sportivo Sorms","43.7967639682901","11.127518408438","SIG216"
"SIG217_600","Lavatoi Casacce","43.7984916252903","11.127331127888","SIG217"
"SIG218_600","Campana Centro Sportivo","43.8023359546756","11.1258888335115","SIG218"
"SIG219_600","Primo Maggio Pistoiese","43.8038506926439","11.1257731924757","SIG219"
"SIG220_600","Indicatorio Tiziano","43.8049980652043","11.1144031032298","SIG220"
"SIG221_600","Dei Colli Macelli","43.786183678702","11.0966574407077","SIG221"
"SIG229_600","Castelletti Degli Arrighi","43.7878125246616","11.0829191036317","SIG229"
"SIG231_600","Castelletti Beccheria","43.7877257410466","11.0832345608485","SIG231"
"SIG232_600","Montagliari Della Mora","43.797953756572","11.0768046393818","SIG232"
"SIG233_600","Della Rinalda Piazza Lecore","43.8000638329167","11.074643332509","SIG233"
"SIG391_600","Dei Bassi Parco Chico Mendez","43.7882374183124","11.136215437825","SIG391"
"SIG476_600","Roma Della Stazione","43.7771394574986","11.0961766163732","SIG476"
"SIG477_600","Roma Santelli","43.779227285381","11.0979473450637","SIG477"
"SIG478_600","Roma Repubblica","43.7821284311289","11.098083010595","SIG478"
"SIG480_600","Del Crocifisso Xxv Aprile","43.7879777124671","11.0955488161727","SIG480"
"SIG481_600","Crocifisso","43.789509741813","11.0922777286726","SIG481"
"SIG488_600","Del Crocifisso Dei Colli","43.7876498324615","11.0959988140045","SIG488"
"SIG489_600","Roma Beata Giovanna","43.7848555358693","11.0971547069995","SIG489"
"SIG490_600","Roma Municipio","43.7820140262215","11.0979392043694","SIG490"
"SIG491_600","Roma Ferroni","43.7791810758185","11.0977670991086","SIG491"
"SIG492_600","Roma Dello Scalo","43.7773344081337","11.0963696086694","SIG492"
"SIG493_600","Roma Cavallotti","43.7750775407966","11.0929904677043","SIG493"
"SIG494_600","Dello Stadio Gramsci","43.7737208439254","11.0948006463382","SIG494"
"SIG641_600","Dei Bassi Valico","43.7902317930002","11.1321135721829","SIG641"
"SIG673_600","Signa Fs","43.7758163598498","11.0959082683105","SIG673"
"SIG674_600","Dei Colli Del Setaiolo","43.7892979156263","11.0972013441854","SIG674"
"SIG675_600","Dei Colli Gobetti","43.7926383782077","11.0993985413285","SIG675"
"SIG676_600","Dei Colli La Pira","43.7945203025346","11.1006126345653","SIG676"
"SIG677_600","Dei Colli Amendola","43.7984304730312","11.1036490650936","SIG677"
"SIG678_600","Indicatorio Dei Colli","43.8026491939835","11.1109389190972","SIG678"
"SIG693_600","Indicatorio Puccini","43.8027933283259","11.1109346729571","SIG693"
"SIG694_600","Dei Colli Piano Del Manetti","43.7984163089858","11.1034403589","SIG694"
"SIG695_600","Dei Colli Dei Sodi","43.7962933685121","11.1016256636238","SIG695"
"SIG696_600","Dei Colli La Malfa","43.7927736863769","11.0993846361699","SIG696"
"SIG697_600","Dei Colli Xxv Aprile","43.7895409970134","11.0972020794863","SIG697"
"SIG700_600","Indicatorio Pistoiese","43.8053131519806","11.1153776877634","SIG700"
"SIG701_600","Campana 2 Giugno","43.8023472639655","11.1257649227225","SIG701"
"SIG710_600","Del Castello","43.7777614811273","11.0914671146543","SIG710"
"SIG711_600","Cavalcanti Roma","43.7762294730022","11.0925273562949","SIG711"
"SIG713_600","Delle Molina Vecchio Ponte","43.7920878670038","11.1284197925629","SIG713"
"SIG714_600","Piazza Ciampi","43.7942843370589","11.129406691831","SIG714"
"SIG715_600","Pozzo Rosso Delle Casacce","43.7958791549808","11.1298253684979","SIG715"
"SIG722_600","De Gasperi Scuole","43.7851949300468","11.0950958200427","SIG722"
"SIG723_600","De Amicis Pistoiese","43.81333303284","11.0628185305504","SIG723"
"SIG724_600","Pistoiese Molino","43.8122258325608","11.0737465493371","SIG724"
"SIG725_600","Bardazzi Pertini","43.8086599422562","11.0802123607186","SIG725"
"SIG726_600","Bardazzi Don Lastri","43.8012293508942","11.074915207436","SIG726"
"SIG727_600","Piazza Lecore","43.7997731944632","11.0747824397694","SIG727"
"SIG728_600","Montagliari Della Rinalda","43.7980740593109","11.0766254605858","SIG728"
"SIG730_600","Castelletti Cimitero","43.7837700490228","11.0888308050576","SIG730"
"SIG734_600","Bardazzi Lecore","43.8010848494807","11.07493972792","SIG734"
"SIG735_600","Bardazzi Pistoiese","43.808506300869","11.080244323736","SIG735"
"SIG736_600","Pistoiese Bardazzi","43.810446685118","11.0839421043718","SIG736"
"SIG737_600","Della Lama Delle Molina","43.7915142005732","11.126127792393","SIG737"
"SIG864_600","Macelli Roma","43.7860802174567","11.0976340682482","SIG864"
"SIG865_600","Dei Colli Pistelli","43.7914247092534","11.0985652471218","SIG865"
"SIG868_600","Dei Colli Buonarroti","43.7912982919477","11.0983402085528","SIG868"
"SIG998_600","Pistoiese Xiii Martiri","43.8050780179834","11.1219877496338","SIG998"
"VAG025_600","Bolognese Di Castiglioni","43.8441699378594","11.2901082332474","VAG025"
"VAG026_600","Bolognese Montorsoli","43.8433480871238","11.2897859383003","VAG026"
"VAG149_600","Cecioni Pratolino","43.8609255685388","11.2961455056511","VAG149"
"VAG822_600","Bolognese Di Villamaggio","43.8453833352267","11.2906599937548","VAG822"
"VAG823_600","Banti Fontesecca","43.8497041310138","11.2918234532045","VAG823"
"VAG825_600","Garena Fontesecca","43.8561358136962","11.2905383102937","VAG825"
"VAG826_600","Garena Uccellatoio","43.8593770938104","11.2932272695197","VAG826"
"VAG827_600","Uccellatoio Cecioni","43.860245075798","11.2939418194431","VAG827"
"VAG831_600","Pratolino","43.8612064016077","11.2980741254216","VAG831"
"VAG832_600","Uccellatoio Del Sole","43.8617571309218","11.2973896824334","VAG832"
"VAG833_600","Uccellatoio Scuole","43.8604258785199","11.2939052039139","VAG833"
"VAG834_600","Uccellatoio Garena","43.8586989056125","11.2924764665279","VAG834"
"VAG837_600","Banti Bolognese","43.8495118530564","11.2917589207229","VAG837"
